station_id,station_name,lng,lat
129612,北沥徐家,115.96795,28.72708
102657, 南昌大学青山湖校区北区,115.931588,28.685082
136052, 塘南水产品市场,116.135203,28.66026
134113, 永外正街口,115.900704,28.695528
143526, 火车站东,115.919987,28.666837
2966,0虚拟限速站点,116.06335,28.518267
2967,0虚拟限速站点,115.96205,28.5369
133348,10虚拟限速点（下昌东大道）,115.963143,28.568778
103730,11,115.821233927398,28.7367943386331
2004,180虚拟1,115.99107,28.67078
2005,180虚拟2,115.95054,28.64878
2006,180虚拟3,115.92213,28.64925
118932,1下行（机场4）,115.901894,28.841647
133562,1虚拟站,115.909198,28.581439
2964,1虚拟限速站点,115.961728,28.535828
2965,1虚拟限速站点,116.061721,28.519053
118926,1（机场4）,115.847219,28.796583
141138,2虚拟,116.212615,28.532885
118933,2（下行机场4）,115.845914,28.790837
122973,3,115.825613,28.709048
122989,3,115.863073,28.702744
2664,301虚拟,116.26498,28.35482
141139,3虚拟,116.215183,28.531861
122974,4,115.833616,28.703796
122990,4,115.869866,28.697711
122994,4,115.854042,28.711384
122991,5,115.874594,28.694781
122995,5,115.851031,28.713937
2684,529虚拟,115.59671,28.84594
122971,6,115.821668,28.713189
133490,7虚拟限速点（上昌南大道）,116.06534,28.571455
2084,853图书馆（招呼站）,115.86241,28.7895
133260,8虚拟限速点（上昌南大道）,115.935624,28.601602
133282,8虚拟限速点（下昌南大道）,115.923628,28.606094
2044,9路虚拟,115.90472,28.66565
133782,BRT何家坊,115.912069,28.631619
133794,BRT公园路口,115.941337,28.541106
133783,BRT包家花园,115.914359,28.625201
133784,BRT南莲路口,115.915878,28.621197
133779,BRT坛子口立交,115.906457,28.653847
133786,BRT墨山立交,115.925091,28.599932
133780,BRT徐坊客运站,115.907221,28.64876
133787,BRT振兴路东口,115.929115,28.581853
131562,BRT振兴路小学,115.917288,28.582313
133781,BRT新溪桥,115.90779,28.643988
133785,BRT朱桥东路口,115.920757,28.610362
133790,BRT江西生物学院,115.93564,28.567539
133792,BRT玺园,115.940857,28.552834
134930,BRT自来水公司,115.905621,28.66204
133793,BRT莲塘,115.941702,28.549078
133789,BRT莲塘北大道,115.932114,28.573149
129048,—劳改局,115.821252,28.712059
102708,丁公路北地铁站,115.906539,28.677335
113253,丁公路南口,115.907412,28.668725
143668,丁公路南地铁站,115.90843,28.667442
140206,丁坊,115.922975,28.444642
110016,丁家,116.155444,28.580783
145401,丁家村,115.793062,28.194432
135079,丁家洲街西口,115.842754,28.623706
103716,丁香路北口,115.79754896745,28.7281319647354
107111,丁香路南口,115.784286,28.71221
124295,七里乡,116.273416,28.44659
123380,七里乡卫生院,116.267751,28.446505
114614,七里岗,115.939667,28.855006
114615,七里岗大街东口,115.945849,28.85269
114613,七里岗大街西口,115.936636,28.855033
116198,七里岗（西）,115.926124599313,28.8483668307105
137857,万和路口,115.917604,28.804748
138871,万坊安居小区,115.931021,28.535536
138876,万坊桥头,115.93603,28.53508
107249,万埠,115.657183789134,28.8563402771575
140196,万家洲,115.88533,28.297718
122027,万家自然村,116.118132,28.565004
108551,万寿宫历史文化街区二号门,115.881512,28.67678
121136,万寿宫历史文化街区（万寿宫地铁站）,115.881502,28.67844
110055,万寿宫地铁站北,115.88077,28.679459
138875,万湖阳光家园,115.93905,28.528017
105662,万科公交停车场,115.982272,28.712784
141733,万科四季花园,115.971227,28.703386
143684,万科四季花城,115.971194,28.699239
129689,万科金域传奇,115.790791,28.709369
130039,万科金域国际,115.824046,28.747541
111773,万舍,115.908667,28.477718
110080,万达员工公寓,115.774704,28.577791
114186,万达广场东,115.845011829703,28.6961721490164
121409,万达广场南,115.843419,28.694525
107615,万达文化旅游城,115.795737,28.581669
133200,万达滨江华府N1区,115.795644,28.554891
117212,万达滨江华府北区,115.798168,28.558676
108159,万达茂二号门,115.787835293717,28.5815444090739
142237,三八沟路口,115.938026,28.36563
142077,三分厂,115.806027,29.132465
134589,三和村,115.877384,28.974634
137530,三官塘,115.574111,28.488303
109151,三家村（庵前小学）,116.036929,28.56852
117048,三家村（莲谢路）,115.959389,28.566687
111701,三山村口,115.885312,28.496189
118195,三岔河口,115.920395,29.021391
112443,三店西路东口,115.910826,28.635059
134086,三店西路京山新街口,115.904619,28.633858
139110,三店西路口,115.902121,28.632629
112899,三店西路立交,115.9094820015,28.6328221082588
145266,三店西路青云谱北路口,115.906833,28.633917
2007,三木,115.803363,28.993418
123840,三江,115.99529,28.299513
107583,三清山大道出龙北路口,115.799852,28.604295
135903,三清山大道安丰街口,115.805552,28.615675
107584,三清山大道景德镇街口,115.803812,28.61186
107586,三清山大道西站大街口,115.808187,28.619552
107582,三清山大道鹰潭街口,115.797546,28.599074
111330,三眼井,115.889464,28.671756
108839,三纬路口,116.146752,28.90624
143422,三经路八一中学,115.892326,28.69381
117975,三经路北口,115.891601,28.70245
121833,三经路口,115.892177,28.692686
117835,三经路龙沙路口,115.899496,28.705028
134440,三联村,116.014514,28.659028
113777,三角乡供电所,115.844313,29.052237
113778,三角乡政府,115.845687,29.051767
115198,三角花园,116.251884,28.377597
124304,三里乡,116.377145,28.682565
124305,三里客运站,116.383603,28.684088
124299,三阳集中心小学,116.267867,28.612338
145167,上万,116.057103,28.751309
138635,上坂,115.751783,28.877647
138636,上坂曹家,115.755459,28.880181
137536,上坪大桥（上坪村）,115.550882,28.428496
100463,上坪村路口,115.689255,28.709877
145405,上塘,115.802794,28.288787
133811,上官塘,115.923886,28.319827
119674,上岗边路口,115.707739,28.48306
105404,上房徐王村,115.937682,28.763502
105405,上房村委会,115.947635,28.76754
110956,上房路口,116.015918723398,28.4802941850207
110949,上方路口,116.015649578505,28.4793616338846
107344,上板,115.534144785662,28.8316753298329
120992,上沙冈,116.121597557992,28.6416862707907
117833,上沙窝,115.893381,28.701037
102578,上海北路国泰路口,115.936222,28.694979
118463,上海南路北口,115.932055,28.652569
145297,上海新城,115.954595,28.47662
108298,上海路南口,115.934515408684,28.6581974289806
107368,上海路口,115.936965,28.665992
108294,上海路飞燕路口,115.935761218102,28.6710042176184
116077,上涌村,115.910842,28.968586
101757,上罗,115.60782,28.496823
101760,上罗,115.845359,28.742725
113192,上罗新村,115.83493,28.745707
119681,上莘金家,115.701445,28.552686
3404,上行昌东大道段虚拟限速,115.975496,28.640654
3405,上行昌南大道段虚拟限速,115.970232,28.594426
134080,上行虚拟限速点上昌南大道,115.967224,28.596309
134081,上行虚拟限速点下昌南大道,115.894971,28.612067
111705,上陈家村,115.88771,28.452749
145166,下万,116.059258,28.751642
2472,下埠集农贸市场,116.381474,28.312603
133810,下官塘,115.919228,28.322356
108968,下尾村,116.103169,28.772409
145208,下尾村南,116.101498,28.75717
106375,下尾路口,116.108677,28.759319
108248,下山观,115.693185,28.661464
105373,下房自然村,116.084355399065,28.8069623103369
105265,下杨村,116.056353462001,28.8201739951767
120991,下沙冈,116.126906078071,28.6482100484448
142482,下沙窝,115.892614,28.698711
110937,下涂家,115.997650296865,28.4578737078764
120591,下满滩,115.869698252684,28.4406689279775
115999,下罗,115.845698,28.738283
122575,下罗,116.094314,28.585314
116002,下罗北,115.8456254,28.74386585
135851,下罗新村北门,115.851701,28.740504
143145,下罗西,115.843932,28.739698
122723,下行4,115.884915,28.836994
122724,下行5,115.868977,28.839993
145558,下行昌南大道段虚拟限速,115.978369,28.592999
122786,下行第一,115.906478,28.851505
134083,下行虚拟限速点上昌南大道,115.894208,28.611279
134084,下行虚拟限速点下昌南大道,115.966411,28.595216
139120,下邓新村,115.904783,28.593805
111703,下陈家村口,115.894095,28.463674
112654,下饶村,115.994071236864,28.3544734281846
105377,世砚自然村,116.113344469759,28.8199992584016
119033,世纪华联购物广场,115.827623,28.951363
145002,世贸路沙井路口,115.838567,28.691015
102223,世贸路红谷大道口,115.848867341059,28.6869731249275
141896,东升北大道天水路口,115.969361,28.655126
3409,东升北大道天香东路口,115.968255,28.65182
141897,东升北大道天香二路口,115.967119,28.648487
121786,东升大道朱桥东路口,115.96113256232,28.6114579051586
121888,东升大道石桥路口,115.96309,28.638932
121885,东升大道罗城路口,115.962572,28.624074
144459,东升大道胡家路口,115.960879,28.608949
143449,东华大道沈桥路口,115.957227621632,28.64239994667096
112332,东华理工,115.825238,28.724523
113199,东华理工西门,115.819303,28.725322
134587,东和村（昌九大道站）,115.874406,28.946444
144728,东城李家东,115.760475,28.596034
144727,东城李家西,115.75668,28.599197
134022,东外环高架,115.883609,28.53217
109359,东岗村委会,116.220912,28.688025
113181,东岳大道东口,115.889485,28.594452
143233,东岳大道东新二路口,115.865919,28.592793
143235,东岳大道东祥路口,115.842442,28.59376
143232,东岳大道诚义路口,115.873168,28.592847
138786,东岳大道金沙二路口,115.881225,28.592612
103374,东岳村,115.839446,28.591611
112723,东文大桥,116.085349,28.291772
113026,东新一路北口,115.86785,28.607334
141280,东新一路南口,115.866543,28.602382
108468,东新乡政府,115.845028057437,28.6069278263283
113024,东新二路南口,115.861677,28.603649
141285,东新二路小洲路口,115.863116,28.595391
135411,东方百灵酒店,115.88864,28.658484
138668,东方红,115.727528,28.721308
119039,东方香颂,115.837741,28.933235
138651,东昌,115.765156,28.817944
102420,东江桥,115.75493549168,28.5046125798947
143445,东泰大道昌丰路口,115.969147,28.6336
143446,东泰大道黎明路口,115.969683,28.637628
109319,东港,116.152770281706,28.6638795128216
139838,东游村委会,116.083949,28.480846
138663,东源,115.73978,28.748099
132234,东田,116.149912,28.593583
103376,东祥路汇仁大道口,115.838505,28.575754
138779,东祥路银湖三路口,115.839015,28.580984
110022,东禅寺,116.172202170889,28.5678417324784
124712,东箭路火炬五路口,115.97982,28.71816
122029,东联,116.110787,28.559558
108479,东莲路,115.877394868842,28.5820416091685
108480,东莲路东口,115.883700091842,28.5819361551844
112250,东莲路东祥路口,115.842004,28.582992
135219,东莲路口,115.885833,28.580783
112235,东莲路河洲路口,115.829719,28.583403
141516,东莲路河洲路口东,115.835556,28.583068
113020,东莲路诚义路口,115.867551,28.582896
112722,东边村,116.083128,28.299058
108926,东邺,116.013102,28.800231
145880,东门口路,116.271712,28.374855
142130,东门村,115.778069,29.074162
145469,东闵村,116.08588,28.697292
133122,东阳村,115.942367,29.04947
144872,中东门,115.916148,28.566206
123390,中兴路,115.994354,28.709336
144799,中医药文化公园,115.828324,28.927938
144898,中医药科创城管委会,115.841022,28.931945
121706,中国（江西）针织服装创意产业园,115.958191498426,28.622614611959
111235,中坊,116.041636,28.493875
144027,中堡村,115.756184,28.628553
117239,中大停车场,115.922903918699,28.7086062249688
124671,中大公交停车场,115.922851,28.711092
135735,中大公交停车场,115.911765,28.71572
138118,中大南路中大路口,115.922162,28.705161
138119,中大南路洪都北大道口,115.918592,28.705156
117485,中央香榭,115.834163,28.66198
117916,中山大道,116.238516,28.372743
115192,中山大道中口,116.2394,28.388101
120884,中山大道北口,116.239776,28.391683
115193,中山大道南口,116.23941,28.385215
100538,中山桥,115.878059211124,28.678828414208
102596,中山桥东,115.878684,28.676833
104922,中山路东口,115.896127,28.678834
124673,中山路西口,115.880178,28.678415
115191,中心大道北口,116.239344,28.39301
109153,中熊村,116.059742,28.567787
129039,中等专业学校,115.808298,28.684092
135636,中车集团,115.814593,28.957922
115375,中陵路口,116.261988292034,28.3650662944136
108858,丰产桥,116.05948,28.825379
131378,丰产桥,116.062924,28.837225
118086,丰和中大道世贸路口,115.847114,28.685096
118085,丰和中大道丽景路口,115.844905,28.681015
127506,丰和中大道口（翠苑路地铁站1号口）,115.841427,28.674911
117823,丰和中大道春晖路口,115.85965,28.698412
118094,丰和中大道绿茵路口,115.852905,28.695589
118099,丰和北大道南口,115.865146,28.703456
118097,丰和北大道香江路口,115.86801214,28.70698655
142440,丰和北大道黄河路,115.875146,28.723351
136880,丰和北立交快速路出口,115.877808,28.731443
140904,丰和南大道岭北一路口,115.827913,28.651063
1604,丰和立交,115.841767866197,28.6712373017517
117753,丰和立交南,115.838138,28.669728
2724,丰和花园东,115.84777,28.69369
145396,丰城东站168总站,115.804948,28.170856
2845,丰城回南昌下高速（虚拟）,115.782719,28.641853
145400,丰城火车站,115.783578,28.187714
105268,丰收桥,116.081048992566,28.8553962957265
142535,丰泽花园,115.730062,28.629755
124570,丰洲桥,116.082536,28.855571
106538,丰源嘉会,115.878193,28.672457
122178,丰源淳和,115.881919,28.603188
145402,临江首府,115.796767,28.203226
118078,临空产业配套中心,115.930884,28.820914
113371,临空产业配套服务中心,115.928013,28.821591
116210,临空经济区公交首末站,115.942720814738,28.8215583364981
105392,为民村委会,115.908665,28.724123
105218,为民路,116.019551,28.764873
108160,主体乐园,115.783004172232,28.5859951128381
108071,丽景中路口,115.8427421241,28.6780338352707
100535,丽景路中寰路口,115.845575342242,28.6794865948503
100257,丽景路口,115.847728,28.675939
138319,丽湖中大道向塘西大道口,115.944667,28.455895
144628,义坊路昌东大道口,115.970627,28.616092
144629,义坊路西口,115.964788,28.616345
131156,义垅,116.106603,28.402842
101511,义渡,115.701786197664,28.4169359981877
121090,义渡桥头,115.698385175549,28.4079492116392
102474,乌桥村,115.63405,28.566269
101745,乌桥路口,115.628439,28.564306
102046,乌桥路口南,115.629418,28.562824
100251,乌石桥,115.828281,28.688052
115983,乐化,115.86357,28.823567
115984,乐化四中,115.865299,28.827173
115987,乐化天桥,115.870284,28.832912
114607,乐化天桥（东）,115.86818,28.831664
115981,乐化新街,115.862275,28.81918
115978,乐化老街,115.860845,28.815963
132216,乐圩邓家自然村路口,116.077378,28.608769
119294,乐水路口,115.825585,28.661906
129688,乐活公园城,115.78671,28.709929
143681,九仰梧桐,115.960148,28.70285
137894,九合桥头,115.821486,29.044723
133661,九方村,115.921017,28.333467
107040,九江街九龙大道口,115.8061653958,28.6280902393917
134371,九江街达礼路口,115.787816,28.635861
142048,九洲大街子羽路口,115.875836,28.629176
138658,九溪,115.753894,28.783809
108836,九联圩,116.11857,28.870435
134681,九连山路宜春大街口,115.792266,28.575747
111292,九里象湖公交总站,115.877004,28.597937
110075,九龙大道九江街口,115.804455,28.628589
110082,九龙大道南龙蟠街口,115.780344,28.589163
125774,九龙大道宜春大街口,115.774272,28.575278
135896,九龙大道鹰潭街口西,115.78968,28.603593
110076,九龙大道龙兴大街口,115.799951,28.617522
124938,九龙明珠,115.803936,28.60718
134679,九龙湖南地铁站东,115.79039,28.58278
134678,九龙湖南地铁站西,115.787375,28.583496
2187,九龙湖隧道北,115.796471,28.593949
122745,九龙湾公园,116.252205,28.2688
108569,二七北路北京西路口,115.913598,28.678356
108566,二七北路南京西路口,115.914228,28.689179
108567,二七北路福州路口,115.913748,28.684913
108565,二七北路阳明东路口,115.914168,28.692866
109687,二七南路口解放西路口,115.91291,28.658874
501,二七南路岔道口西路口,115.9134,28.672248
108570,二七南路金盘路口,115.913508,28.674722
124707,二十八中(高新校区),115.993485,28.705976
2504,二塘乡政府,116.469465,28.537025
142483,二纬路口,115.889495,28.693823
109269,二郎庙,116.178402,28.703204
135081,云卿路永乐路口,115.844924,28.619107
143248,云天路东口,115.876693,28.642382
122042,云天路丹桂路口,115.870618,28.640177
103365,云天路抚生南路口,115.86393,28.642776
142124,云山经济开发区管委会,115.771257,29.102136
115269,云桥北路口,116.246265,28.374611
122743,云桥南路云中路口,116.249186,28.35592
131731,云桥南路口,116.249532,28.35401
131764,云桥路,116.250753,28.347755
137191,云桥路南口,116.244812,28.371957
118305,云桥路口,116.246225,28.371715
113029,云海路东,115.86803,28.620344
144583,云海路翠菊路口,115.855791,28.624515
141350,云溪公交停车场,115.781118,28.664923
141351,云溪公租房,115.779428,28.666804
141352,云溪花园三区,115.775786,28.667397
108462,云锦路口,115.860701040325,28.6385358675972
104052,云锦路桃花南路口,115.870845,28.628902
106509,云锦路永富路口,115.851242,28.63729
116889,云锦路站,115.859558,28.637172
143244,云锦路红梅路口,115.867049,28.630766
143243,云锦路翠菊路口,115.86027,28.634479
106508,云锦路银环路口,115.85521,28.637307
116884,云飞路东口,115.866898,28.624619
106512,云飞路口,115.85466,28.629958
103760,云飞路永富路口,115.850961,28.631739
108465,云飞路西口,115.846589350751,28.6338473414756
112427,五一路口,115.936117,28.546467
110803,五一路市场南路口,115.9394,28.545882
140234,五丰村村委会,116.15396,28.811111
145300,五十亩,115.962168,28.461894
108981,五星农场,116.258603,28.778827
108979,五星分道口,116.216757,28.787861
108980,五星敬老院,116.25359,28.780196
108978,五星牌楼,116.187907,28.787957
108974,五爱村,116.143109,28.777534
121834,五纬路,115.893444,28.695572
140330,五纬路王家庄路口,115.895435,28.696301
124293,五里中学,116.270477,28.396806
133566,井冈山大道三店西路口,115.911483,28.6336
145275,井冈山大道三店西路口（BRT),115.91054,28.636031
139343,井冈山综合市场,115.73755,28.709953
131134,井岗,116.364695,28.608984
131948,交大附中,115.862626,28.746754
118288,交警大队,116.249133,28.37176
140042,交警红谷滩大队,115.835581,28.683498
138882,交警莲塘中队,115.924935,28.544619
118549,交警青云谱大队,115.912495,28.642059
131758,交通局,116.25487,28.363553
137227,产业一路宁远大街口,115.719996,28.629695
107151,产业路望北大道口,115.732217,28.640834
107152,产业路永强路口,115.728397,28.638301
137226,产业路璜溪大道口,115.725972,28.636551
121582,产业路科发路口,115.72214321038,28.6348962739352
133582,亨利邓家自然村,116.20177,28.590049
104571,京东公交停车场,115.969062,28.675349
129625,京东南大道秦胜二路口北,115.96079,28.65165
109309,京东南大道解放东路口,115.959936538493,28.6483909062196
109310,京东大道口,115.963388037399,28.671528336945
140537,京东大道火炬三路口,115.968128,28.702914
102645,京东大道火炬四路口,115.968075,28.708388
102643,京东大道艾溪湖北路口,115.967994,28.711917
121904,京东大道金圣路口,115.967003,28.688713
104569,京东安居小区,115.955499,28.672133
136028,京东安居小区南门,115.957097,28.671202
123520,京东安居小区（南门),115.958518,28.671378
105903,京东消防中队,115.962424,28.664647
106131,京东镇政府,115.962173,28.687158
136030,京安路艾溪湖南路口,115.968231,28.672458
113172,京山北路,115.901767,28.647467
134927,京山北路北口,115.899952,28.650934
139108,京山北路口,115.901716,28.643343
122182,京山南路口,115.894311,28.614198
133024,京山新街中段,115.904889,28.637433
112901,京山新街北口,115.90827374,28.6387937
102663,人民公园,115.910272,28.677364
103216,人民公园北门,115.907210665151,28.6865447356161
114991,人民大道东口,116.253974,28.378521
115195,人民大道中口,116.243118,28.378107
114990,人民大道滨湖大道口,116.257506,28.379173
144209,人民街,115.566866,28.735831
108972,仁参墩,116.130377,28.776204
121363,付家,115.641814493845,28.3547039958192
140197,付家嘴,115.889505,28.312418
144526,付家村,116.055912,28.497469
111233,付家路口,116.041071,28.501407
114327,仙里土库村,115.830377,28.878285
114330,仙里村,115.826072,28.884845
113406,仪器厂,115.855465,28.746736
108231,任家村,115.675767,28.660789
115811,伍家山,116.047959,28.996371
108453,会展路,115.850462559166,28.691648966643
107333,伟星纺织,115.582095247983,28.8523190370444
134439,但家,116.020398,28.669599
123377,佐家寨,116.221581,28.443775
109732,佑民寺,115.892729301741,28.685960726697
102660,体育公园,115.921643,28.683596
115376,体育公园,116.264202982844,28.366330332482
108288,体育公园北,115.923655853088,28.6864663505254
138869,体育馆社区居委会,115.931375,28.540154
112405,何坊西路,115.9044806497,28.6395238979946
144672,何坊西路口,115.901652,28.640548
113299,何坊西路西口,115.900545,28.639733
124303,何家,116.347691,28.666009
140226,何家坊,115.912699,28.629773
139232,余南村,115.95099,28.399861
106322,余家村,116.009396,28.689933
143509,佛塔幸福家园南,115.95343,28.614934
121889,佛塔派出所,115.964978,28.642211
144455,佛塔街,115.941232,28.616074
144454,佛塔路金鹰路口,115.937853,28.620376
117235,供电所,115.907751718268,28.7330528143058
143677,保利东湾,115.968016,28.729545
142443,保税五路口,115.936646,28.836299
143896,信达航科,115.614674,28.886625
143599,修贤运动场,115.804902,28.667341
112721,傲上村,116.085469,28.305766
118076,儒乐湖大街立交西,115.935265,28.819565
102588,儿童医院,115.890834,28.691776
109543,兆丰新农村,116.216167,28.722435
114333,先锋学院,115.808687,28.8915
107254,先锋软件学院,115.809574097097,28.9059556744762
106321,光明小学,116.008371,28.686349
121239,光明村,115.909433,29.003746
117044,八一乡中学,115.94456,28.560283
140256,八一乡桥头,115.939859,28.556312
104930,八一公园,115.890668,28.683805
109713,八一公园东门,115.89416,28.680977
112339,八一大桥,115.879362,28.691726
108280,八一大道永叔路口,115.90053247132018,28.67025907240057
102666,八一广场东,115.902268,28.677419
2435,八一广场北,115.898651,28.680492
108281,八一广场南,115.898901673767,28.6731657893557
142485,八一桥,115.885336,28.691293
143859,八一馆地铁站,115.886473,28.68029
140210,八二八,115.93463,28.5082
112895,八大山人梅湖景区东,115.916681586885,28.6084855269263
108469,八月湖路,115.848390843037,28.6065590658468
143331,八月湖路东口,115.88838,28.602522
143327,八月湖路东新二路口,115.86001,28.605332
135218,八月湖路口,115.891017,28.601483
108466,八月湖路西口,115.835900496521,28.6083501881854
117743,公交保育院,115.900582,28.665854
145080,公交创新二路北停车场,115.994268,28.679893
140379,公交华南城停车场,115.770391,28.64642
113996,公交塘子河首末站,115.880702,28.690605
104478,公交宿舍,115.92941,28.625327
111381,公交振铃南路首末站,115.86144948218129,28.52126374032924
121007,公交文化大道停车场,115.814048,28.699959
143240,公交新洪城大市场公交首末站北,115.843182,28.612736
143239,公交新洪城大市场公交首末站西,115.839253,28.610411
135082,公交新洪城大市场首末站北,115.841862,28.613077
144579,公交新洪城大市场首末站西,115.840022,28.611517
115950,公交昌北停车场,115.826207,28.725827
129031,公交昌北停车场,115.808244,28.699762
129040,公交昌北停车场,115.815947,28.683312
142597,公交汽修厂,115.889785,28.657255
145919,公交河洲路停车场,115.829019,28.578252
132295,公交瑶湖西停车场,116.033048,28.674999
107256,公交运输集团,115.859015,28.706309
115165,公交进贤停车场,116.246768,28.365821
112330,公交集团,115.865264,28.701047
102565,公交驾校,115.953454,28.714336
143308,公交驾校西,115.95282,28.713492
140980,公交高新停车场,115.967926,28.698318
116572,公园路口,115.941116,28.539792
135412,公安小区,115.881436,28.66354
101925,公安施救中心,115.774198471637,28.6583505220193
112915,公安直属公司,115.908522158175,28.6371975571562
122209,公安直属分局北,115.907378,28.639622
101179,公安红谷滩分局,115.856632954863,28.7013599120968
108925,六房,116.002889,28.79581
111328,六眼井,115.888504,28.674434
108838,六纬路口,116.14073,28.900122
135077,兰宫路中段,115.842395,28.629203
106575,兰宫路南口,115.842155,28.62664
102020,兰溪村路口,115.653743,28.374038
137526,关山村,115.593762,28.507336
144952,兴业一路望北大道口,115.721377,28.649186
137260,兴业一路科发路口,115.715882,28.642232
108218,兴业中大道口,115.726243,28.64306
144951,兴业中大道物华路口,115.733229,28.646426
137258,兴业中大道璜溪大道口,115.725328,28.641186
144955,兴业中大道科发路口,115.722507,28.639298
108219,兴业二路口,115.721833,28.646141
134806,兴农村,115.877057,28.38667
139152,兴向大道解放二路口,115.957287,28.430166
139150,兴向大道铸剑路口,115.946703,28.428198
102152,兴国路,115.8063,28.686564
129050,兴国路,115.823862,28.720011
142132,兴杨村,115.801082,29.057373
111702,内湖村口,115.890348,28.476484
124043,冈上中学,115.871248,28.419401
120587,冈上交管站,115.858319475388,28.4164834504186
120589,冈上供电所,115.869568040616,28.4193268291702
121752,冈上肖家,116.142268139695,28.6722529926386
120588,冈上镇政府,115.862842147928,28.4188891227853
107568,军博园,115.763331586655,28.5694777895076
107567,军博园停车场,115.76006,28.56422
113819,军山中心小学,115.765103,29.151502
124300,军山湖,116.305481,28.630297
124301,军山湖公路管理处,116.32038,28.635194
115202,军湖路,116.259996,28.37245
114988,军湖路北口,116.263757,28.377337
134584,军隆地产,115.832406,28.93982
103536,农大东区,115.849991,28.754763
142687,农大生态园,115.836988,28.760849
106752,农大生活区,115.833524,28.761739
109142,农机站,115.98846,28.619908
138705,农科路莲西路口,115.915019,28.564098
103739,冠山路南口,115.853455000826,28.7733145561851
103740,冠山路口,115.851666070567,28.7770216943148
133584,冶建,116.20604,28.599358
119288,凉伞树路北口,115.858046,28.639838
114211,凌波路,115.82288164675,28.7048434042346
107459,凤凰东路口,115.598292523561,28.8623876910442
102439,凤凰中大道,115.840025059098,28.6878077106838
102438,凤凰中大道北口,115.843135169766,28.693032124852
100318,凤凰中大道商都路口,115.84255,28.691414
102220,凤凰中大道怡园路口,115.838887545577,28.6852987404704
101056,凤凰中大道绿茵路口,115.850880097369,28.6996338640371
100315,凤凰中大道翠苑路口,115.835305,28.679299
118082,凤凰中大道翠苑路口南,115.834182,28.677406
102433,凤凰北大道口,115.863686293201,28.7078478073162
144212,凤凰南大道南口,115.824786,28.659774
119295,凤凰南大道学府大道口,115.82705,28.664633
117891,凤凰大道岭口路口,115.829836,28.669483
101062,凤凰家园南区,115.870617914232,28.7202164672482
112707,凤凰村村口,116.009869,28.369917
112783,凤凰村路口,116.010459358483,28.3690397744422
112781,凤凰沟风景区,116.006380857793,28.3804388325068
123904,凤凰洲市民公园,115.872674,28.699831
107462,凤凰花园,115.582483139568,28.8490102008039
140612,凤凰花园东区北门,115.877521,28.724847
101063,凤凰花园西区南门,115.871707339189,28.7211160074049
118286,凤凰街,116.255235,28.371447
143905,凤凰西路,115.581484,28.858676
107461,凤凰西路口,115.584503887898,28.8585358066948
109596,凤岗刘家北,116.105894978773,28.4952075177116
131601,凤岗刘家南,116.107235,28.489934
109598,凤岗庙下村,116.107633095703,28.4838826361463
137531,凤岗村,115.572557,28.479319
113947,凤岗龚李村,116.104565171427,28.4759633159398
117287,凯旋湾,115.721535,28.706133
116550,刘家,115.960398,28.300669
117061,刘家,116.011236,28.578187
120683,刘家,116.141166,28.810715
122026,刘家自然村,116.133735,28.565691
109577,刘郑村,116.125717240104,28.5327381620565
131772,创业大道,116.249652,28.344032
131767,创业大道中段,116.260517,28.341928
107463,创业街口,115.578501076682,28.8466678386995
123409,创新一路北口,116.00365,28.709144
141113,创新一路紫阳大道口南,115.987437,28.675576
141116,创新一路艾溪湖一路口北,115.992264,28.687264
145079,创新一路艾溪湖一路口南,115.990505,28.682937
141118,创新一路艾溪湖二路口北,115.995575,28.695296
141117,创新一路艾溪湖二路口南,115.99356,28.690469
141112,创新一路艾溪湖南路口,115.986247,28.672761
141111,创新一路艾溪湖南路口南,115.985332,28.670592
124705,创新一路艾溪湖四路口,116.001745,28.706028
123411,创新一路艾溪湖四路口南,115.99832,28.700654
135056,创新二路停车场,115.991598,28.677776
134856,创新二路紫阳大道口南,115.992372,28.676093
124628,创新二路艾溪湖一路口北,115.99794,28.684985
124625,创新二路艾溪湖三路口,116.002875,28.698634
124626,创新二路艾溪湖二路口北,116.001545,28.694643
124627,创新二路艾溪湖二路口南,115.999285,28.688553
124623,创新二路艾溪湖南路口南,116.00741,28.710269
124632,创新二路艾溪湖南路口南,115.99095,28.668917
124624,创新二路艾溪湖四路口,116.0047,28.703816
106333,创新大道瑶湖西五路口,116.030112,28.72828
106319,创新大道紫阳大道口,116.00623,28.678894
145180,创新大道艾溪湖北路口,116.017612,28.707814
106327,创新大道艾溪湖北路口南,116.015537,28.7039
134283,创新大道艾溪湖四路口,116.013739,28.700008
127356,利博园（经开区中小企业园）,115.893548,28.792171
135083,利用村,115.838989,28.584216
111236,前坊,116.041061,28.489942
141130,前坊客运站,116.226549,28.523572
102423,前坊村,115.734908396341,28.4912611847283
112724,前坊村,116.091589,28.282427
105396,前洲村,115.917479,28.730434
143610,前湖南院商业街,115.78737,28.649335
143613,前湖南院第一教学楼,115.791211,28.646343
143615,前湖南院第二教学楼,115.791841,28.649496
107125,前湖大道北口,115.812949,28.663188
143616,前湖幼儿园,115.791385,28.654499
117034,前湖校区,115.807241,28.661685
100528,前湖迎宾馆,115.802056915461,28.6599877812247
142243,前罗路口,115.945198,28.366276
117545,前进村,116.025195,28.521435
134135,前进村东,115.806544,28.763554
109718,前进路北口,115.892809,28.665544
122805,前途,116.163112,28.289298
145397,剑声中学,115.78924,28.163584
112779,剑霞,115.996844363531,28.4175865160794
144456,包坊余家,115.942902,28.610659
140225,包家花园,115.915005,28.623361
136145,包罗庙,116.062166,28.514536
124505,包装厂,115.934255,28.854832
118279,化肥仓库,116.269107,28.364847
132487,北万,116.208389,28.604861
109356,北万,116.220072,28.675223
119387,北京东路新桃路口,115.958387,28.677556
108491,北京西路立交,115.913938646275,28.6765682638715
107373,北京路口,115.922777,28.679373
101508,北城,115.682263145907,28.4438315254229
121094,北城村,115.682906663033,28.4427850125092
124362,北塘口,116.141754,28.682934
142233,北头下坊村,115.911828,28.376457
102421,北头村,115.745795336606,28.5005786022107
113398,北山村,115.881998,28.762903
131283,北山村,115.882804,28.77348
109350,北山粮站,116.220552,28.65215
113457,北山路,115.875398456736,28.7531474726558
113400,北山路口,115.876171,28.751949
109275,北星电厂,116.202396,28.717827
120700,北望村,116.0241,28.735877
105659,北沥三和公寓,115.974169,28.715113
105984,北沥公寓,115.966115,28.726254
131574,北洲,116.12978,28.539553
109579,北洲村委会,116.129732889437,28.5380500248531
117229,北洲自然村,115.909985208449,28.7579948468468
109352,北湖五组,116.222713,28.660104
109353,北湖李家巷,116.223193,28.663528
109155,北熊村,116.070848,28.556196
121764,北联村委会,116.183605355897,28.7450205754369
145472,北胡村,116.101238,28.714538
102150,北郊,115.803768,28.69435
101322,北郊菜场,115.806475,28.695539
114989,北门口,116.262589,28.379181
124291,北门口南,116.264846,28.378248
109360,北陶家,116.218391,28.704198
107581,北龙蟠街城运路口,115.800439,28.592627
100246,区二中,115.813398,28.695512
100708,区人民医院,115.734180719299,28.7017671905024
100801,区公安局,115.733377,28.700233
117288,区国土局,115.724949,28.717061
120418,区妇保,115.733316,28.711143
121646,区妇保所,115.72981,28.715657
100249,区总工会,115.821618,28.685833
131765,医科园管委会,116.259197,28.341238
140209,医药学校,115.929365,28.495844
108295,十七中,115.93574620835,28.6690553995043
101931,十九公庄,115.708194324409,28.6182751543983
143170,十二中,115.875378,28.665788
105267,十字岭,116.069942106497,28.8460203189607
109266,十字桥,116.141348,28.697477
100782,十字街,115.902476,28.658463
112373,千亿产业园,115.826656,28.580972
138650,半岭,115.768997,28.8284
115948,华东交大理工学院,115.820633,28.710676
113394,华东交通大学（广兰大道口）,115.82212,28.725974
118544,华东国际工业博览城,115.925602,28.624328
118542,华东国际工业博览城东门,115.930443,28.627519
101743,华东文武学校,115.649792,28.580136
130609,华侨城公交首末站北,115.884942,28.639955
137579,华南东二路,115.772818,28.637456
144047,华南城,115.76705,28.637994
125771,华南城南,115.769471,28.638951
107145,华南大道口,115.765806,28.640543
135630,华龙,115.801342,29.001186
109554,协成,116.126905,28.660626
132482,南万,116.207288,28.603036
107458,南亚铝业,115.60393873213,28.864105423254
120326,南京东路口,115.962487,28.68335
102653,南京东路学院路口,115.946824,28.685151
145071,南京东路学院路口东,115.949861,28.685011
132827,南京东路艾溪湖南路口,115.966016,28.684501
102654,南京东路青山湖大道口,115.943086,28.685151
108286,南京西路文教路口,115.918605071529,28.688273582129
108285,南京西路贤士二路口,115.910812,28.6882999171248
122334,南台客运站,116.409856437152,28.4915941537653
110944,南坊,116.016128760712,28.4651680160924
117547,南坊小学,116.045145,28.517091
120684,南坊桥,116.076545,28.793477
141110,南塘村小产业园,115.984248,28.667989
105663,南塘湖路中段（邓坊村）,116.012537,28.718017
143571,南大一附一院高新院区,115.991115,28.698337
100268,南大一附医院,115.902755,28.688279
102585,南大一附医院北门,115.905334,28.691385
139421,南大一附院高新院区,115.993527,28.700889
105561,南大北口,115.934756,28.690653
104565,南大南院,115.940288,28.677562
116460,南大南院西门,115.935636,28.681861
108291,南大宿舍南区,115.935701179094,28.6840270629887
143463,南大附中,115.935754,28.68771
142320,南大附属小学,115.843834,28.664967
108282,南大附属眼科医院,115.898492003805,28.6869634160885
135846,南天金源南门,115.836463,28.742637
135844,南天金源西门,115.828243,28.744456
116556,南头万家,115.953575,28.343306
140203,南头罗家,115.91952,28.396691
112715,南安村,116.050004,28.337955
121428,南山路囗,115.7291,28.721937
121305,南岗万家,115.639522,28.485324
132219,南岗小学,116.081749,28.620512
132220,南岗村委会,116.082959,28.624359
108923,南川小学,115.997681,28.793746
102779,南师附小玉泉岛校区,115.933309,28.696666
123412,南师附小高新校区,115.997,28.698527
145298,南店村,115.956059,28.47343
145299,南店村委会,115.956989,28.466389
122573,南徐,116.104248,28.581337
3227,南斯友好路机场限速点（下行）,115.825153,28.678344
3205,南斯友好路机场限速点（正）,115.82948,28.677173
108930,南新中学,116.061055,28.806922
108931,南新卫生院,116.064213,28.804033
108927,南新收费站,116.021059,28.803471
108933,南新楼前,116.065078,28.80099
108932,南新街上,116.064663,28.802612
132481,南方,116.209568,28.607056
117045,南方水泥厂,115.948283,28.561972
116957,南昌一中朝阳校区,115.866493,28.627602
121788,南昌三中义坊学校,115.962026004346,28.6205850991474
143686,南昌三中艾溪湖校区西门,115.977137,28.710616
118541,南昌三中青云谱校区,115.936871,28.632926
102575,南昌三中青山湖校区东门,115.942968,28.696475
105914,南昌三中高新校区东,115.968189,28.722157
137041,南昌东收费站,116.070206,28.680239
137048,南昌东收费站,116.08552,28.680376
123896,南昌之星,115.844133,28.65835
107246,南昌公交安义枢纽站,115.5986,28.84776
113783,南昌公交永修公交枢纽,115.828773,29.033243
114004,南昌公交永修枢纽,115.829602,29.035642
113055,南昌动物园,115.876116,28.637726
117526,南昌县中医院,115.918113,28.57388
111121,南昌县中医院东,115.920101,28.575208
144870,南昌县政府,115.922677,28.565643
138868,南昌县教育局,115.934107,28.541609
140262,南昌县法院,115.932693,28.543183
111772,南昌县看守所,115.913523,28.477085
137684,南昌县社保局,115.93387,28.55126
2189,南昌回丰城上高速（虚拟）,115.759093,28.568341
135729,南昌外国语学校高新校区,115.972137,28.704576
108036,南昌大学前湖校区北门,115.807557,28.66827
120763,南昌大学前湖校区正门,115.797693,28.656961
122281,南昌大学第一附属医院象湖分院,115.855885,28.592835
104920,南昌大学第四附属医院,115.903279,28.67034
117754,南昌大学附属小学前湖分校,115.834548,28.669468
108290,南昌大学青山湖校区北区,115.933569794306,28.684935633596
140909,南昌就业大厦,115.871552,28.664998
116425,南昌工学院,115.748585,28.61748
144139,南昌工程学院,116.018712,28.689526
134905,南昌市医科所附属医院,115.7248005,28.70083862
134442,南昌市实验中学高新校区,116.019338,28.656402
140607,南昌市房地产交易市场,115.864295,28.706243
118088,南昌市政务服务中心,115.850663,28.693318
130040,南昌市昌北二小,115.824001,28.752841
129998,南昌市昌北二小（青岚校区）,115.821726,28.753432
121133,南昌市第一医院,115.886181,28.682365
121116,南昌师范学院昌北校区南门,115.796676,28.723561
138667,南昌教育学院,115.727708,28.727112
124129,南昌汽车机电学校昌北校区,115.842282,28.775342
136879,南昌海昏侯国遗址公园,115.927762,29.02749
103741,南昌理工学院,115.855650506145,28.7808714146802
103531,南昌理工学院南门,115.852706,28.782538
113339,南昌监狱,115.905171,28.783707
117284,南昌知识产权保护中心,115.731,28.704113
100530,南昌科大校园,115.81720657092,28.666264491235
118095,南昌紧急救援中心,115.873836,28.716219
142678,南昌红谷清真大寺,115.831615,28.683809
140691,南昌经开区人民医院,115.840259,28.745785
121121,南昌经开区新庐小学,115.819311,28.714204
142441,南昌综保区管委会,115.939646,28.839372
107293,南昌职业学院,115.580169360042,28.8439397729535
117483,南昌航空大学前湖校区,115.829216,28.653397
123906,南昌舰景区,115.883167,28.72095
121598,南昌西站,115.788177453585,28.6290596649434
145408,南昌西站东枢纽,115.791252,28.627662
117036,南昌西站（北广场西地下站）,115.787828,28.628009
139122,南昌邮区中心局,115.905753,28.588335
100792,南昌陆军学院东门,115.793455,28.672449
103548,南昌院子,115.851277,28.805971
119303,南昌首创奥特莱斯,115.805817,28.708417
113252,南柴,115.90751,28.672264
105391,南江路西口,115.906425,28.722747
108773,南江陈家,115.967814,28.535608
131603,南洲,116.112226,28.470073
113944,南洲,116.101928942819,28.4691688259436
105445,南洲上村,115.905585,28.747777
117232,南洲村委会,115.906051220063,28.7507859096985
141816,南浦路船山路口,115.884526,28.67112
102668,南海行宫,115.891536,28.674849
117552,南涂村,116.081205,28.507397
110021,南湖万家,116.168723493022,28.5744253952476
102022,南湾村,115.663148,28.383597
101289,南熊村,115.764281,28.488252
109541,南田,116.236389,28.729009
101310,南矶乡政府,116.353591,28.947921
101311,南矶大桥,116.262141,28.906839
101312,南矶路口,116.253775,28.901612
145470,南胡村,116.090681,28.702207
121033,南航北门,115.82082926631,28.6615337927164
140224,南莲社区北,115.91638,28.619636
108805,南邓村,115.978781,28.533627
141905,南钢大道南钢北一路口,115.988193,28.655446
141903,南钢招待所,115.980318,28.655271
141904,南钢花园,115.983808,28.655321
105781,南镇村,115.943884,28.688583
105560,南镇谢村,115.93900748088627,28.69063254963164
118277,南门路,116.262538,28.363043
118276,南门路南口,116.26141,28.361697
109357,南陶,116.220732,28.679965
120132,博学路广州路口,115.933491,28.625911
120133,博学路惠民路口,115.935046,28.628294
134208,卢家,115.995755,28.371731
1644,卢田村,115.652464,28.73995
117479,卧龙山地铁站北,115.818916,28.636076
117478,卧龙山地铁站南,115.816796,28.633706
100465,卫东村,115.682802,28.717871
100464,卫东检查站,115.68703,28.710987
100316,卫东花园,115.838079,28.684176
129686,卫国村,115.783569,28.719595
139118,印钞厂,115.903659,28.60089
132224,厚溪张家自然村,116.071936,28.648958
132225,厚溪村委会,116.072976,28.654831
101285,厚田,115.790208,28.464612
121376,厚田刘家,115.787277,28.45608
145407,厚田沙漠,115.798797,28.425162
121387,厚田沙漠,115.797596,28.440405
101288,厚田风雨亭,115.769808,28.480131
107329,县交警大队,115.571657600682,28.8430100439124
107299,县交通局,115.54654917948,28.8411946949772
123596,县政府,116.239696,28.379797
107314,县计生委行政服务中心,115.571762526434,28.8460087980785
100767,双云路云溪路口,115.781905,28.661735
137590,双云路祥云大道口,115.763246,28.652723
2459,双岗殿,116.412582,28.648159
103719,双岭村,115.774560844631,28.731042265884
119044,双汇食品有限公司,115.829117,28.911141
103616,双港东路口,115.8498,28.746167
113405,双港地铁站（2号口）,115.856779,28.746833
143982,双港新村三区,115.872618,28.753167
140634,双港西大街海棠北路口,115.811221,28.74748
134139,双港西大街紫荆路口,115.829146,28.745684
140626,双港西大街芙蓉路口,115.815311,28.746212
114819,双港西大街青岚大道口,115.820812,28.745834
116558,双马,115.934771,28.351253
100804,双马石路,115.726415,28.701974
108501,叠山路东口,115.895660207821,28.6886575875653
100263,叠山路包家巷,115.8844780668,28.686987872
142487,叠山路胜利路口,115.881806,28.68665
102594,叠山路西口,115.878724,28.686283
102232,口腔医院,115.900238747315,28.6856814569177
144669,司马庙,115.896113,28.6526
102673,司马庙立交北,115.891364,28.662557
111706,合山村,115.880755,28.441942
111708,合山村南段,115.876109,28.435603
111707,合山村小学,115.879826,28.440631
108970,吉南分道口,116.125212,28.774361
108971,吉南村,116.127764,28.77444
145406,同田,115.813472,28.322656
138634,名山村,115.746602,28.853012
111234,后坊,116.041697,28.497317
109321,后房,116.172608897155,28.6621676728012
132473,后房,116.208128,28.632258
105223,后李村,116.007306,28.764585
122568,后柏村,116.126848,28.578818
108916,后洲,115.916636,28.746723
145473,后熊村,116.105245,28.720224
106325,后胡村,116.007271,28.697703
145302,向化桥,115.965152,28.446954
145308,向塘,115.961903,28.440429
145803,向塘大道银河西路口,115.961089,28.453059
139154,向塘机务段,115.961522,28.427997
138311,向塘村,115.957251,28.438575
138309,向塘火车站（向站路）,115.954845,28.445781
138310,向塘火车站（向贤路）,115.952846,28.444463
145306,向塘街,115.964328,28.436109
138307,向塘西大道东口,115.938995,28.454667
138306,向塘西大道西口,115.92718,28.452167
139157,向塘铁路医院,115.960887,28.421901
145305,向塘镇政府,115.965288,28.434017
110967,向沙路沙滩,115.970558310806,28.4529072426989
145799,向站路丽湖中大道口,115.948321,28.443965
139158,向西停车场,115.958737,28.418441
139153,向贤路兴向大道口,115.961297,28.429824
139155,向铁俱乐部,115.961847,28.42613
113919,吴城汽车站,116.00229,29.180528
116557,吴石,115.947831,28.347091
134759,吴石桥,115.950394,28.345583
113776,周坊村,115.836932,29.047792
120445,周家,115.779451,28.845522
108233,周家村,115.66976,28.654968
121767,和丰小学,116.180072173045,28.7266078073236
121766,和丰村委会,116.1771742293,28.7298263604525
102029,和平村,115.628204,28.412292
139151,唐家村,115.953,28.429501
111352,唐村,115.848218,28.543594
107468,商城北,115.550091732514,28.8441038772027
101746,善西村,115.632335,28.556173
116891,喜盈门停车场,115.864135,28.644182
143889,嘉优格铝业,115.62581,28.865989
116208,嘉和一路南口,115.94064628781,28.8174491699401
118062,嘉瑞路口,115.807049,28.714939
115134,嘉禾路东门,116.252008,28.373425
114992,嘉禾路北口,116.252009,28.379819
118287,嘉禾路口,116.252928,28.371875
100526,嘉言路,115.781603356481,28.6538897195782
100527,嘉言路东口,115.78946776515,28.6511803993567
100579,嘉言路口,115.793238215603,28.6495876472844
113203,嘉轩路北口,115.829886,28.703925
116899,团结路社区,115.871333,28.670306
116900,团结路西河滩巷口,115.873061,28.673244
116882,园常寺路,115.868193,28.6213
110012,园艺场,116.188252,28.581059
117477,国体中心地铁站,115.812217,28.626163
134375,国体中心地铁站西,115.810836,28.625894
122750,国光大道,116.180685,28.23274
141426,国博地铁一号口,115.791073,28.611103
141125,国博地铁四号口,115.789968,28.610747
134364,国博地铁站,115.78973,28.612088
102783,国安路南口,115.930433,28.686346
131754,国家电网,116.263984,28.371803
143466,国康路上海北路口,115.939613,28.698241
101314,国旺公司,116.151032,28.849064
107327,国税局,115.556719078551,28.8418334250136
134582,国药北大道,115.829936,28.945213
145398,国贸大厦,115.769334,28.160605
101317,国鸿集团公司,115.95653,28.752318
114317,土地岭,115.846816,28.847132
135899,圭峰大道,115.786326,28.611946
142552,圭峰大道景德镇街口,115.78825,28.615867
117471,圭峰大道鹰潭街口,115.783415,28.606675
121299,地上村,115.684723,28.482185
117473,地铁国博站,115.790939,28.612202
145411,地铁大厦,115.848364,28.687867
134134,地震台,115.803138,28.764347
137232,坚磨大道官马街口,115.702993,28.649002
117904,坛子口停车场,115.905711,28.659151
108275,坛子口立交东,115.909237657685,28.658902271303
116204,坛山二路,115.93579666666,28.837995
111854,坝上,115.967502,28.496548
114611,坝上村,115.915029,28.843287
111855,坝中,115.970259,28.492437
111856,坝口朱家,115.972057,28.490645
110993,坝头,116.005208128365,28.4925857451862
116085,坦石岗,115.916212,28.924021
113655,垒旺时代广场,115.806674,28.979511
105360,垾上村,115.970244452993,28.7564538990531
141901,城东花园,115.975791,28.646902
120137,城南佳园,115.942874,28.642257
118540,城南公交枢纽,115.935348,28.633613
109565,城南大道北口,115.9427,28.652208
104329,城南大道南口,115.940096,28.603481
135638,城南工业园,115.817613,28.950329
120136,城南经适房,115.941846,28.638532
104320,城喻村,115.94152,28.632304
107262,城建学院,115.845464423965,28.7191494590831
115289,城投小区,116.23988,28.370971
123595,城投青岚小区,116.237688,28.381699
123887,城运路西站大街口,115.812455,28.618363
143605,基础实验大楼,115.793781,28.660627
138660,堎上,115.746052,28.766403
121613,塄上花园,115.936571,28.649311
108789,塔城,116.089852,28.505771
108791,塔城湖陂市场,116.108839,28.506961
115970,塘下村,115.913499091615,28.9214818192607
132475,塘东岸,116.211488,28.626235
110131,塘南中学,116.129344,28.659619
122632,塘南二小,116.246256,28.733173
109553,塘南水产品市场,116.134231,28.66105
120686,塘外龚家,116.065085,28.779445
100541,塘子河,115.878282747287,28.6897219785747
117051,塘家村,115.967781,28.572169
104996,塘山,115.930446,28.721694
139510,塘山新村,115.941722,28.716716
102569,塘山镇政府,115.945325,28.711592
120138,墅溪园小区,115.943397,28.646385
121614,墅溪路上海南路口,115.930246,28.64712
121612,墅溪路东口,115.941827,28.648673
121617,墅溪路西口,115.918184,28.65028
140221,墨山立交南,115.928835,28.582752
108502,墩子塘,115.891188143241,28.688473297096
105395,墩子村,115.914118,28.727782
138643,夏泽路口,115.786875,28.861844
100805,夏泽陈家,115.720567,28.701974
143198,外国语学校,115.883905,28.666268
135414,外国语学校,115.802734,28.616384
117475,外国语学校九龙湖校区,115.802285,28.618799
118316,外贸局,116.266397,28.362818
108784,大仪村,116.041275,28.527567
117546,大仪村南,116.036217,28.518868
108504,大众购物中心,115.8829,28.68715
101732,大北农,115.748601,28.640626
115822,大喜,115.956976,28.948926
123677,大塘,115.90127,28.998119
108785,大塘胡家,116.059868,28.520557
121238,大塘街,115.908335,29.011603
118191,大塘街上,115.900895,28.999865
134923,大市场东路水厂路口,115.885536,28.642167
135026,大市场东路灌婴路口,115.885686,28.64565
134588,大庄村（昌九大道站）,115.87362,28.953181
117052,大昌村,115.970047,28.574305
109320,大桥,116.163635,28.6656176888422
122594,大沈桥,115.966946,28.644268
109367,大沙农场,116.22065085526,28.6842993224593
109358,大沙农村,116.220492,28.682124
132470,大沙村,116.185364,28.643193
108467,大洲公寓,115.840344177493,28.6072965868097
132474,大浦村,116.210452,28.631457
132477,大浦转角上,116.212908,28.620934
132476,大浦雷家,116.211772,28.623906
113837,大湖池侯鸟保护站,115.925698,29.090289
113920,大湖池候鸟保护站,115.926793,29.090717
137534,大濂周家,115.550722,28.462566
114480,大观村,115.910863,28.91767
102032,大路刘家,115.621881,28.426495
101938,大路熊家,115.671240722576,28.6256398400947
1645,大马村,115.648959,28.745435
113653,大鹏橱具,115.802361,28.996755
143606,天健园,115.791501,28.659444
101924,天发加油站,115.785426262164,28.6642327060496
100718,天宁寺西路中段（城南综合市场）,115.721393066251,28.6983392180686
100717,天宁寺西路夏泽路口（恒大林溪府）,115.729256740868,28.6946314793579
119400,天祥公交枢纽站,116.031895,28.714781
137039,天祥大道,116.019212,28.691158
106384,天祥大道与瑶湖西五路口,116.036623,28.723353
106369,天祥大道与瑶湖西六路口,116.042497,28.730202
137040,天祥大道东口,116.017732,28.684901
144143,天祥大道佳海产业一号门,116.035214,28.718192
144144,天祥大道佳海产业二号门,116.036157,28.721101
106354,天祥大道佳海产业园二号门,116.03555,28.719783
106368,天祥大道北口,116.039865,28.728421
105738,天祥大道口,116.023903,28.705742
145245,天祥大道瑶湖西七路口,116.05323322,28.73772725
144145,天祥大道瑶湖西五路口,116.038525,28.72714
145224,天祥大道航空城大道口,116.089831,28.752057
109946,天赐良园,115.86606,28.711119
136022,天香园,115.947963,28.661464
136021,天香园西,115.947603,28.656768
118462,太和小区,115.924453,28.648116
117309,太平心街,115.718797,28.806535
140144,太平路口,116.161345,28.51771
117310,太平里,115.71941,28.808607
118283,太阳城,116.261755,28.371893
143899,奋发科技,115.593724,28.872326
145204,奥体中心地铁口,116.019765,28.676944
145461,奥体中心地铁站西,116.017476,28.6777
121157,奥克斯,115.804822,28.738556
113183,奥林匹克花园,115.887356,28.586419
119653,姚富路口,115.853494,28.512058
119656,姚湾,115.832356,28.496623
122571,姜家,116.114104,28.580023
108928,姜家湖,116.030762,28.807555
120701,娄家,116.015831,28.756255
102795,子安路南口,115.880305,28.670116
120969,子实路,115.810752037856,28.6885992153643
121004,子实路口,115.813205,28.689228
119026,子实路长堎大道口,115.79435,28.69082
130633,子羽路九洲大街口,115.875583,28.627683
116881,子羽路停车场,115.872829,28.624178
135852,孔目湖地铁站,115.853275,28.735678
123604,学前路口,116.072412,28.376306
143598,学府大道东门,115.805492,28.66436
1605,学府大道科苑路口,115.82018,28.669078
117796,学府大道红谷南大道口,115.84121,28.662007
143614,学府大道西门,115.791531,28.647821
108079,学府路口,115.816040161841,28.6657139114516
143600,学生事务服务中心,115.803677,28.667649
120956,学院南大道南口,115.743921339504,28.660944687621
102603,孺子西路新洲路口,115.877177,28.670466
106593,孺子路口,115.882192,28.673137
102670,孺子路船山路口,115.88308,28.673929
108522,孺子路西口,115.880055187996,28.673694017746
107158,宁远大街兴业二路口,115.713361,28.637761
107157,宁远大街兴业大道口,115.717181,28.635623
107159,宁远大街宏图大道口,115.709663,28.639863
107161,宁远大街望喜路口,115.696498,28.644139
137532,安东村,115.561236,28.475336
107467,安义中学,115.55486129291,28.8444552723225
107472,安义县委党校,115.545797642313,28.8587583551613
107301,安义县政府,115.544325811001,28.847398179181
107471,安义县民政局,115.548397869943,28.8541511747018
107470,安义县社保局,115.546599998267,28.8480212820567
144208,安义古村,115.595636,28.751249
119250,安义古村石鼻,115.550338,28.767551
107454,安义工业园,115.603344394386,28.8489581483127
107330,安义迎宾大道,115.577844672518,28.8437231462753
111689,安居小区,115.920712,28.552317
142596,安石路,115.891369,28.654414
119038,安置房小区,115.840039,28.936843
102024,宋家村,115.662175,28.394728
140198,宋洲,115.889995,28.316782
107457,宏兴钢构,115.60595948046,28.8615548511849
137228,宏图大道兴业中大道口,115.713515,28.627931
117046,官下村,115.952461,28.563329
133812,官塘,115.927186,28.316942
101756,官塘村,115.605627,28.501963
112839,官田村,116.052671710687,28.3077076474183
144679,定山路口,115.903535,28.604468
136515,定岗大道南口,115.916192,28.584467
136514,定岗第一安居小区,115.914236,28.589223
132175,宝塔村北周,116.057386,28.658645
132176,宝塔村南周,116.052714,28.646936
132177,宝塔村吴库,116.053718,28.634864
143220,富山一路莲河路口,115.900667,28.552648
143221,富山一路金沙一路口,115.894104,28.552667
143222,富山一路金沙大道口,115.883756,28.552562
111809,富山乡,115.855181,28.519284
119647,富山五路,115.915959,28.528308
119646,富山五路东口,115.920989,28.531096
119605,富山五路中段,115.900158,28.525496
111699,富山五路口,115.883453,28.530619
111808,富山交管站,115.853846,28.515781
122234,富山大道,115.877874,28.544853
143219,富山大道东口,115.912253,28.547784
117909,富山大道口,115.912949,28.548992
111351,富山大道西口,115.837512,28.543281
137730,富山大道金沙一路口,115.891894,28.545612
111354,富山大道金沙三路口,115.863926,28.54416
111379,富山大道金沙三路口东,115.866514,28.544429
112026,富山大道金沙二路口,115.870773,28.544637
137732,富山大道金沙大道口,115.881436,28.545163
119601,富山星光村,115.866722,28.513886
113413,富樱路南口,115.828526,28.728629
130034,富樱路口,115.829686,28.728145
113412,富樱路菊圃路口,115.826333,28.733924
105221,富民路,116.015178,28.765263
120702,富民路南口,116.015409,28.76119
124937,富源花园,115.775194,28.626123
119676,对门村,115.693005,28.499434
2785,寺前,115.815754,28.55516
139329,射击中心,115.73621,28.690058
110883,将军渡,115.896419,28.640929
101921,小平小道,115.802976497843,28.6796794169584
102252,小桥,115.76733027618,28.7023152397387
142076,小桥村,115.804646,29.128919
134590,小桥村（北山杜家）,115.891358,28.969473
108470,小洲村,115.853915419381,28.606032265159
141286,小洲路西口,115.867099,28.596531
109362,小莲村,116.21677,28.711626
139125,小蓝一路东口,115.90987,28.565877
141525,小蓝中大道,115.88877,28.559078
112422,小蓝二路口,115.91149812511,28.5563749155205
122163,小蓝公交总站,115.882746,28.538698
131594,小蓝北路莲塘中大道口,115.927476,28.576144
138545,小蓝北路西口,115.910965,28.573674
141558,小蓝大道莲河路口东,115.901032,28.559785
141559,小蓝大道莲河路口西,115.894943,28.559536
141527,小蓝大道莲西路口西,115.893498,28.559258
141560,小蓝大道金沙一路口,115.891904,28.559369
141522,小蓝大道金沙三路口,115.867528,28.55864
143224,小蓝大道金沙二路口,115.877377,28.558943
141570,小蓝大道金沙大道口,115.883506,28.558887
111122,小蓝新村,115.92103,28.571521
137731,小蓝经开区管委会,115.887045,28.545399
1646,小马村,115.647687,28.747187
121005,少华路口,115.812082,28.693523
106335,尤口安置房,116.036417,28.72641
106331,尤口粮站,116.027805,28.724123
106332,尤口街,116.028524,28.726667
105737,尤氨路口,116.016379,28.707222
112716,尧坊村,116.067166,28.326876
136268,居住主题公园,115.89034,28.598374
102028,屋塘村,115.632175,28.408579
137897,山下渡小学,115.813106,29.040813
112655,山前闵家,115.987181434287,28.3543152567248
121377,山水村,115.785298,28.447133
114002,山水美地,115.819837023681,29.0127876394178
134443,山湖村,116.025102,28.657524
103210,岔道口西路,115.913438883579,28.6704449083141
100799,岗下村,115.742699,28.685458
111900,岗前,115.908099185555,28.5075060726715
121098,岗口二桥,115.705556322268,28.4675105539742
137527,岗岭上,115.58585,28.502412
110014,岚湖戴家,116.173078,28.580533
115201,岚湖路,116.258888,28.374095
112836,岭下村,116.010387472968,28.3204829009303
112656,岭前村委会,115.97692161958,28.3552972390622
117482,岭北一路,115.829629,28.650125
117481,岭北一路东口,115.833663,28.648372
128938,岭北一路口,115.829603,28.654884
110072,岭北五路红谷南大道口,115.825836,28.636184
140903,岭北地铁站,115.824543,28.642105
100471,岭口检查站,115.651675,28.724196
114332,岭口王家,115.812696,28.890898
119016,岭口路中段,115.838869,28.667459
142321,岭口路汇景路口,115.84663,28.663748
118074,岭口路西口,115.823046,28.672835
100452,岭秀湖,115.733544,28.705744
138671,岭秀湖市民公园东,115.733669,28.709264
110965,崇溪,115.99181730313,28.4430158075715
108485,工业一路北口,115.90291600956,28.5733416554777
100243,工业一路南口,115.797341,28.695365
119028,工业三路兴国路口,115.788593,28.703751
102248,工业三路口,115.79015417559,28.6994100421099
144985,工业三路昌湾大道口,115.786456,28.683902
119027,工业三路长富大道口,115.788368,28.693901
108482,工业二路北口,115.891206309701,28.5733416554777
100241,工业二路南口,115.792355,28.695477
102247,工业二路口,115.792348683613,28.6994367773202
102249,工业四路口,115.785775319305,28.6993833068996
102246,工业大道东口,115.797433643175,28.6993566533713
108484,工业大道北口,115.900453970102,28.5734471094618
129759,工业大道四路口,115.784111,28.698586
121132,工人文化宫,115.885572,28.686236
101292,巴茅楞,115.757915,28.498963
132222,巷上东胡村,116.078863,28.639406
132221,巷上南胡村,116.078768,28.633282
132223,巷上村委会,116.074292,28.640288
124260,巷上路厚浦街口,116.080148,28.669968
124261,巷上路厚浦街口南,116.079478,28.667046
124262,巷上路麻中街口,116.077968,28.663916
144536,巷口胡家,116.026392,28.553893
145168,巷口赵家,116.055267,28.747245
108283,市出租公司,115.899962959504,28.6881616583969
113052,市场东路口,115.883438,28.646968
105575,市委,115.853800621162,28.6882371409233
140382,市委党校,115.792653,28.645481
141845,市安全生产应急指挥中心（经开区法院）,115.837586,28.751643
117786,市广电中心,115.858331,28.692825
116453,市政公园广场,115.941241,28.704691
144984,市政公用城,115.772262,28.682659
102572,市政公用广场,115.945204,28.70603
105573,市政府,115.85279,28.687503
144983,市政绿城,115.773783,28.685575
124090,市汊接口,115.831185,28.401527
140611,市法律服务中心,115.879781,28.723328
104929,市洪都中医院,115.887581,28.681239
118558,市第九医院,115.923594,28.670688
101926,市警校,115.768475568698,28.6540943075583
139107,市通用机械厂,115.901636,28.649707
108496,市饲料公司,115.911597565488,28.6957396070277
144138,师大三桥,116.018532,28.683854
144137,师大二桥,116.019302,28.680329
133346,师大新校区大门,116.028595,28.676585
102255,师大湾里附小,115.750180602374,28.7067354190193
110136,干岭子,116.122134,28.704606
141518,平利花园,115.846238,28.583016
113182,平安象湖风情,115.888705,28.591265
121414,幸福北路口,115.80383,28.699425
100807,幸福南路,115.713544,28.694726
122225,幸福时光,115.875934,28.585578
138659,幸福桃园,115.753108,28.776193
100809,幸福水库,115.711593,28.684615
121886,幸福渠四号公园,115.962897,28.62853
139323,幸福路综合市场,115.726258,28.720175
133279,幽兰,116.144616,28.579818
132235,幽兰地藏寺,116.150632,28.59661
134044,幽兰收费站,116.067441,28.571669
132256,幽兰计生办,116.138741,28.57994
142236,广三路口,115.921944,28.359773
113416,广兰大道,115.821766,28.714905
101319,广兰大道凌波路口,115.819419,28.709438
115780,广兰大道南口,115.817956,28.70268
129033,广兰大道南口,115.801408,28.698077
118599,广场东路,115.902,28.675421
118600,广场东路丁公路口,115.907056,28.674659
104921,广场南路北口,115.901116,28.674629
104321,广州路东口,115.941399,28.624942
120131,广州路博览路口,115.930001,28.624063
143336,广州路城南大道口,115.939746,28.623576
118546,广州路西口,115.916561,28.624688
121604,广州路高新南大道口,115.950454,28.62296
105570,广电支路西口,115.859996,28.69446
140200,广福,115.90805,28.364274
140201,广福信用社,115.90897,28.367251
142235,广福派出所,115.910065,28.366018
141109,广阳小区,115.985106,28.666168
104790,广阳村,115.980182903513,28.6715610800388
109311,广阳村路口,115.976623785377,28.6705679233533
104698,广阳湖路东升北大道口,115.974325,28.667601
104697,广阳湖路艾溪湖南路口,115.975252,28.670215
144681,庄园路口,115.904061,28.597798
103534,庐山中大道北口,115.848201,28.765103
103541,庐山南大道玉屏东大街口,115.846178,28.734224
102523,庐山大道南,115.847663,28.716462
132215,库前村砖瓦厂,116.068165,28.602631
101763,库泉村,115.623911,28.467071
131854,店上村,116.403722,28.569306
121362,店下,115.642705128453,28.3588224678568
138656,店前街,115.754444,28.791808
112842,庙下口村,116.01195,28.31663
109150,庵前张家,116.027505,28.566569
113775,建华村,115.833615,29.042013
135633,建昌村,115.808453,28.973856
135634,建昌检测,115.810513,28.967829
142757,建设西路大市场东路口,115.886519,28.651612
110899,建设西路安石路口,115.892163,28.650817
103130,建设西路桃花路口,115.876080997461,28.653191933262
142755,建设西路龙河路口,115.888261,28.651379
144670,建设路口,115.896723,28.648834
134926,建设路西口,115.897413,28.650328
134006,开元酒店,115.923458,28.67735
101920,开关厂,115.809734973695,28.68427038986
102417,开关厂（长征西路兴国路口）,115.81121,28.683933
107455,开发区管委会,115.609822675797,28.851040247961
118291,开发区路口,116.227413,28.37245
109555,张坊,116.107388,28.665043
119650,张坊村,115.898564,28.518004
119682,张家,115.702161,28.553977
119695,张家,115.698005,28.565209
110145,张家圩北,116.123786,28.734579
110144,张家圩南,116.125627,28.730981
104310,张燕村,115.943948,28.670328
139147,强军路兴向大道口,115.932562,28.426601
109571,彭家村,116.112321753151,28.5093488224825
141882,彭家桥,115.927665,28.677415
118469,彭桥路北口,115.928571,28.67456
118468,彭桥路南口,115.930351,28.667525
140228,徐坊客运站,115.907005,28.650301
139106,徐坊客运站北,115.904399,28.651488
107248,徐埠路口,115.638318162067,28.8646816053658
121306,徐塘村,115.632321,28.480745
123836,徐家,115.973088,28.322297
121298,徐家村,115.688677,28.480606
111704,徐家村口,115.891127,28.459773
112711,徐家村委会,116.017426,28.346181
114609,徐邓村,115.892671,28.84202
135897,御珑小区东门,115.78413,28.608031
129052,心怡广场,115.835302,28.731016
117314,心溪,115.719356,28.805438
144398,志敏大道中段,115.8427143,28.75987057
144399,志敏大道庐山中大道口,115.84965588,28.76040483
142692,怀玉山大道景德镇街口,115.7919,28.614317
100536,怡园路口,115.849050313514,28.6802711836016
102221,怡园路金融大街口,115.841396128048,28.6850117031349
142083,恒丰,115.842302,29.138727
142085,恒丰中学,115.854381,29.139569
142084,恒丰农贸市场,115.847447,29.138567
142081,恒丰街,115.837698,29.138027
113189,恒大城公交站,115.856317,28.564566
116279,恒湖,116.070439,28.99361
121879,恒源科技园,115.967706,28.601434
143444,恒生制衣,115.968188,28.625956
107465,恒茂北门,115.565841682733,28.8456786479248
135635,恩派尔产业园,115.812973,28.961344
131380,恭家坊,116.059518,28.866392
121791,惠民路口,115.951223478026,28.6303540489635
135728,愉恬家园,115.946001,28.714353
135732,愉恬家园,115.963778,28.704655
122586,慈母,116.026164,28.61914
122585,慈母万家,116.031086,28.616723
143601,慧源楼,115.799382,28.667332
108843,成新农贸市场,116.136788,28.929965
108842,成新桥头,116.139195,28.92938
108837,成新检查站,116.143382,28.883894
102031,戴坊,115.623258,28.421426
117548,戴家村,116.050212,28.516547
117050,扎上村,115.965653,28.570202
105394,扬子洲乡政府,115.911485,28.725309
117228,扬子洲农场,115.913164124871,28.7602698935804
117231,扬子洲制药厂,115.90740908057,28.7544793774967
108826,扬子洲面粉厂,115.902334,28.729173
108862,扬新路扬农路口,115.908466,28.737979
100470,扶轮五湖学校,115.654663,28.724775
121366,抗援,115.637224914162,28.3416806315267
102672,抚河公园,115.887798,28.667006
102701,抚河桥,115.885527,28.66916
102671,抚河桥东,115.884385,28.669752
102598,抚河桥西,115.881188,28.668866
118903,抚生南路丁家洲街口,115.848878,28.619815
144582,抚生南路朝农街口,115.850122,28.622473
117750,抚生路口,115.874054,28.658704
102812,抚生路建设西路口,115.869575,28.654478
106504,抚生路水厂路口,115.86544,28.647003
104047,抚生路灌婴路口,115.867416,28.650124
106320,护国寺,116.008139,28.683347
139141,报恩寺,115.921651,28.455951
129476,招呼站,115.709574,28.665686
139336,招贤镇政府,115.73611,28.69599
104165,振兴大道河滨路口,115.922187,28.582887
112766,振兴路,115.924690888077,28.5828145260349
140298,振铃东路,115.873717,28.523146
138248,振铃南路振铃东路口,115.867529,28.521527
2471,捉牛岗路口,116.346763,28.330193
138012,捉牛岗集贸市场,116.355912,28.369044
140259,揭家,115.935725,28.548896
118079,政务服务中心,115.924762,28.822089
115678,政务服务中心东,115.923639,28.82308
120958,敏学路中段,115.753008172527,28.6597576455813
120959,敏学路石岗路口,115.757205789971,28.6598665764263
120957,敏学路西口,115.748579627804,28.6597321004076
107340,教科村,115.548844370302,28.8449745796115
119651,敬老院路口,115.874949,28.517294
111851,敷林,115.960578,28.511817
111852,敷林村委会,115.965253,28.508627
102251,文全村,115.774807859071,28.7003903229553
129044,文化大道,115.821387,28.69742
114107,文化大道东口,115.833209,28.698364
100370,文化大道口,115.819855,28.700166
114106,文化大道马兰路口,115.827682,28.70002
2784,文坊村,115.818296,28.563463
107295,文峰东路口,115.561242745077,28.8424068676065
109355,文明村,116.221092,28.672168
112884,斗柏路口,115.922471253464,28.5477550471416
119639,斗门,115.928278,28.54523
110806,斗门村,115.929995,28.543386
108271,新世纪小区,115.932405549125,28.6567099531596
111331,新四军军部旧址陈列馆,115.891023,28.668149
117058,新坊北头村,115.995308,28.585228
117057,新坊小学,115.988923,28.581791
117055,新坊村委会,115.983995,28.580979
117056,新坊路口,115.987124,28.581379
119678,新垱头王家,115.688672,28.515694
145206,新增,116.081922,28.748846
116036,新增村,116.009663,28.970572
129690,新宇学校,115.779344,28.70735
131855,新富村,116.399707,28.559594
110013,新庄,116.178836,28.580638
130439,新建三中,115.783019,28.677813
121006,新建二中西门,115.812017,28.698023
118067,新建区一中,115.812779,28.702581
129753,新建区六中,115.801982,28.690417
102250,新建区开发区,115.780807196976,28.6995080712143
129047,新建区总工会,115.818742,28.707894
127435,新建区政府,115.809572,28.695334
120972,新建区政府东,115.811955789939,28.6962411997558
102151,新建区血防站,115.805537,28.688908
144996,新建大道创客东路口,115.832403,28.693767
127437,新建大道口,115.818198,28.694809
144994,新建大道花果山路口,115.822223,28.695673
144995,新建大道马兰路口,115.828123,28.695793
141337,新张村,115.905658,28.55991
140204,新村,115.920535,28.40171
105398,新村,115.92674,28.742577
105397,新村村委会,115.923155,28.737533
133654,新村（向塘）,115.919827,28.402927
117060,新武桥头,116.002505,28.584972
133885,新洪城大市场公交枢纽站,115.833872,28.598004
105411,新洲村委会,115.976981,28.793108
116902,新洲路北口,115.876217,28.677124
106592,新洲路口,115.878792,28.66981
108223,新源,115.696026,28.651432
116585,新溪桥,115.907422,28.646421
140227,新溪桥南缆集团,115.9076,28.645369
143442,新溪桥路新溪桥西一路口,115.916765,28.639745
115212,新火车站,116.240863,28.359705
115211,新火车站云桥口,116.246371,28.361349
101740,新石埠,115.680777,28.600698
119042,新祺周一路,115.828287,28.919512
119041,新祺周三路,115.825713,28.926166
135644,新祺周五路,115.835373,28.931412
115664,新祺周汽车站,115.829851,28.948054
138665,新经济产业园,115.732469,28.734395
109540,新联,116.24269,28.732691
122634,新联中学,116.250871,28.735616
122633,新联派岀所,116.247551,28.733967
134804,新荆林,115.873508,28.414476
111882,新莲武中路,115.940820634132,28.535060795994
111257,新莲武路口,115.941092,28.536601
142082,新黄金山,115.840123,29.1385
132217,新龙前坊自然村路口,116.078028,28.611517
132218,新龙后坊.乐圩熊家自然村路口,116.079258,28.613434
101937,方家新居,115.672494310838,28.6182273317639
101936,方家老居,115.677072633189,28.6126799061743
131763,施家路口,116.250273,28.351034
110902,施尧路三店西路口,115.89593,28.635132
144671,施尧路北口,115.898473,28.643538
108833,旋风湖,116.06814,28.844316
133809,早田村,115.905301,28.331659
117836,旭照路,115.900951,28.706036
145177,昌东一中,116.024557,28.717197
145178,昌东交管站,116.020716,28.712581
144627,昌东大道义坊路口,115.973407,28.613332
105736,昌东大道北口,116.003006,28.710889
144626,昌东大道昌运路口,115.970652,28.605253
143574,昌东大道紫阳大道口,115.983316,28.681652
144633,昌东大道胡家路口,115.971667,28.60954
143573,昌东大道艾溪湖一路口,115.985246,28.686354
123395,昌东大道艾溪湖北路口,116.002234,28.712275
3164,昌东大道艾溪湖四路口,115.995764,28.704358
141900,昌东大道解放东路口,115.975806,28.642626
144625,昌东大道谢佛路口,115.969591,28.602088
121790,昌东广场,115.951629588038,28.6243643279084
106330,昌东派出所,116.02733,28.721791
112329,昌北,115.871086,28.69699
102521,昌北,115.861457,28.70422
129262,昌北二小,115.840532,28.739484
103718,昌北二小二部,115.785620352757,28.725765407627
103476,昌北大道经开大道口,115.875055,28.77627
113366,昌北大道金港路口,115.884458,28.776397
118371,昌北机场,115.912415,28.861606
118372,昌北机场(T1航站楼),115.907906,28.860183
118373,昌北机场(T2航站楼),115.910047,28.862186
116612,昌北机场T1航站,115.908215,28.856858
114610,昌北机场配套区,115.904675,28.842055
116477,昌北经适房,115.820065,28.752654
112231,昌南体育中心,115.862535,28.583135
139123,昌南公交枢纽,115.907394,28.579319
104671,昌安路东泰大道口,115.967373,28.630148
104672,昌安路昌东大道口,115.972574,28.629566
109545,昌家岭,116.192342,28.718336
103878,昌泰路龙竹路口,115.979893,28.628717
121031,昌湾大道工业五路口,115.7742490798,28.6869106151592
115267,昌盛路口,116.253862,28.374487
103717,昌西大道,115.788751169396,28.7294378157383
129996,昌西大道（青岚村）,115.807214,28.749129
144462,昌运路昌东大道口,115.967928,28.605899
115578,昌邑,116.057303,29.021757
115742,昌邑,116.055428,29.012755
115738,昌邑乡西门,116.065238,29.06343
115741,昌邑勒家,116.06351,29.034232
116037,昌邑大桥,116.047262,28.983317
115812,昌邑李家,116.054522,29.008666
115810,昌邑路口,116.048531,28.993343
104676,昌雄路罗家大道口,115.985412,28.632355
144726,明月山大道上饶大街口,115.744936,28.616331
144725,明月山大道北口,115.73911,28.6355
144030,明月山大道文汇街口,115.745032,28.621478
137253,明月山大道璜垦街口,115.741112,28.633507
144031,明月山大道裕泰街口,115.742901,28.630831
138657,明清园,115.755934,28.787491
102781,星光村,115.930698,28.69
145801,星城大道丽湖中大道口,115.948911,28.448014
111137,星港小镇西门,115.93496,28.533178
142123,星火工业园,115.784045,29.106414
135632,春光线缆,115.805352,28.984293
105569,春晖路口,115.864577,28.695914
123903,春晖路广电支路口,115.862846,28.69385
101212,春晖路江报路口,115.861026,28.696484
111857,春溪,115.976135,28.487903
120593,晋安村,115.862829765799,28.4592024469658
111230,晏涂,116.020096,28.512429
141422,景德镇街怀玉山大道口,115.791453,28.615582
113367,智能制作产业园,115.897461,28.783538
118585,曙光小区,115.919183,28.654117
103475,曰修路北口,115.867046,28.776343
113459,曰修路南口,115.867737236192,28.7481705221906
145404,曲江,115.769484,28.244444
139148,曹城黄家,115.936412,28.42667
121097,曹山村,115.699998398857,28.4643197187221
115739,曹门村,116.065904,29.05376
111225,曹骆村,116.009495,28.535852
138661,月亮湾北,115.743211,28.76189
138662,月亮湾南,115.740686,28.750434
2404,月坊南路东泰北大道口,115.971416,28.657327
104699,月坊小区,115.971358,28.663248
137219,望北大道中源路口,115.727774,28.646566
137220,望北大道产业路口,115.731749,28.643844
137218,望北大道兴业一路口,115.722487,28.649409
144958,望城公交枢纽,115.736694,28.638617
121581,望城帅家,115.714292358735,28.6413735255383
101928,望城新区,115.732612043615,28.6351565443389
121588,望城新区管委会,115.729018308747,28.6338614765565
102601,朝新路,115.873375,28.669768
135073,朝阳公交枢纽,115.868682,28.642427
145539,朝阳公交枢纽大脊水厂路,115.872278,28.644459
103366,朝阳农场,115.861332,28.640247
140906,朝阳大桥丰和口,115.831983,28.65657
117798,朝阳大桥红谷南大道口,115.834473,28.653868
142369,朝阳新三村,115.875128,28.641221
102599,朝阳水厂,115.877043,28.668056
102600,朝阳洲中路,115.874116,28.667913
102602,朝阳洲北路,115.875508,28.669126
143169,朝阳洲南路,115.877151,28.663971
106470,朝阳经适房,115.865664,28.621058
137535,木山,115.552746,28.438073
129042,未命名,115.822032,28.683741
142181,未命名,115.804132,28.674963
111232,朱坊,116.030558,28.505988
114612,朱坊新村,115.928713,28.849882
101755,朱坊村,115.598767,28.5105
108230,朱家村,115.676675,28.662811
101744,朱家村路口,115.641754,28.574218
133583,朱家自然村,116.20278,28.594516
140223,朱桥东路口,115.921635,28.608877
104327,朱桥东路口,115.936926,28.610747
104328,朱桥路南口,115.940313,28.605881
139156,机务段生活区,115.961622,28.423747
2267,机场3上行1,115.792002,28.643008
2268,机场3上行2,115.902684,28.842794
2364,机场3虚拟3上行,115.78691,28.631466
2584,机场4 虚拟3,115.846086,28.749943
139146,机场生活区,115.929765,28.432102
135850,机电学院,115.847682,28.739841
143602,机电楼,115.796146,28.665488
112713,李向村,116.021926,28.339623
119680,李家,115.693451,28.540423
121361,李家,115.645930159222,28.3709797307447
109564,李家巷,115.951581,28.648254
101318,李家庄,115.914966,28.709101
117951,李庄路,115.919761,28.711178
122751,李渡镇,116.17239,28.22909
122754,李渡镇政府,116.176542,28.229052
143603,材料楼,115.794821,28.663731
108229,杨坞张村,115.677295,28.663966
116554,杨家坊,115.964849,28.333187
142074,杨家岭,115.773958,29.098137
142098,杨家岭,115.793711,29.114108
133664,杨家村,115.942562,28.336115
108969,杨家滩,116.114461,28.77278
115200,杨家路口,116.258037,28.375212
140205,杨村,115.92067,28.437284
139144,杨村东,115.923421,28.438035
133803,杨村（西）,115.920017,28.435858
142131,杨柳津村,115.798742,29.058319
142107,杨柳津村,115.786074,29.067269
132237,杨树危家,116.146952,28.604435
132241,杨树新刘家,116.148532,28.62534
132239,杨树涂士端,116.148702,28.614314
132238,杨树邓家,116.149162,28.610493
132242,杨树陈刘黄,116.149228,28.62873
132240,杨树龚家,116.149202,28.616242
121085,松湖新街,115.66956313154,28.3898023049852
121086,松湖新街口,115.672657565362,28.390887559987
121360,松湖村,115.646947105688,28.3727961887589
102019,松湖老街,115.649931,28.376678
133663,板湖村,115.933404,28.335564
109145,板溪李家,115.998633,28.598924
117230,林场村委会,115.908627347942,28.7568712316431
109143,枫下陈家,115.993801,28.611057
124128,枫景村,115.828383,28.776698
110015,枫林,116.162762,28.57994
113411,枫林大道,115.827685,28.737902
103532,枫林岔道口,115.843381,28.779508
121111,枫林西大街海棠北路口,115.808146,28.738182
129995,枫林西大街麦园路口,115.802502,28.73865
3044,枫生快速路口（限速）,115.758835,28.565037
123607,架桥镇,116.067906,28.433838
117308,架溪,115.725658,28.80266
137736,柏林村,115.875438,28.538566
102424,柏树村,115.726905682787,28.4834788207008
102425,柏树村街办,115.723005883289,28.4804444127084
123381,柳家,116.271928,28.437452
108973,柳树河,116.137704,28.776376
103478,格特拉克,115.876316,28.763151
124297,桂花,116.249116,28.516072
130211,桂苑大道,115.837863,28.740549
134141,桂苑大道杜鹃路口,115.837668,28.74239
141847,桂苑大道菊圃路口（经开区管委会）,115.838146,28.736047
112784,桃园村,116.011419005705,28.3641318466644
119858,桃湖村,115.962544,28.674114
108424,桃花东路口,115.861921579548,28.6052850578291
106612,桃花南路,115.87721732567188,28.65596912741865
113057,桃花南路云锦路口,115.870895,28.62752
113058,桃花南路云飞路口,115.866693,28.623675
124042,桃花庵,115.897933,28.424136
102796,桃花路北口,115.879431,28.667263
144593,桃花路建设西路口,115.877467,28.654703
117748,桃花路桃苑大街口,115.878812,28.663062
117749,桃花路洪城路口,115.877854,28.659678
133831,桃花路灌婴路口,115.876425,28.647387
117746,桃苑大街桃苑中路口,115.885256,28.662923
117745,桃苑小区,115.887919,28.662688
142598,桃苑西路南口,115.887825,28.660248
131766,桃里詹章村,116.266561,28.338501
115997,案塘,115.897392,28.878968
132077,桐岗村路口,115.773078,28.419125
112714,桐树新村,116.027475,28.337565
119030,桑海制药厂,115.824122,28.961609
115658,桑海南大道阳光大道口,115.831747,28.91424
135639,桑海大道北口,115.82043,28.940409
119032,桑海工具厂,115.826567,28.955586
134583,桑海春天,115.830216,28.941482
119031,桑海纸箱厂,115.825537,28.959743
112782,桑蚕厂茶研究所,116.008420108138,28.3737366085521
109156,桥头熊家自然村,116.075651,28.554142
114322,桥岭,115.846306,28.858298
131346,桥岭,115.812376,28.850907
112780,梁西,116.01075924824,28.39976131641
138655,梅岭古镇,115.749963,28.793153
100802,梅岭大道北口,115.731304,28.703013
117305,梅岭宾馆,115.743551,28.800404
129444,梅岭森林公园,115.734109,28.734742
138653,梅岭第一漂,115.759969,28.806319
134132,梅岭脚,115.791824,28.766514
2462,梅庄,116.411831,28.590451
131851,梅庄客运站,116.414484,28.587894
131135,梅庄镇政府,116.414182,28.585536
113336,梅林大街,115.884968,28.760806
221,梅林大街口,115.868127,28.759683
144604,梅花村,115.771919,28.47734332
110147,梓溪村委会,116.13729,28.74852
110146,梓溪村路口,116.121017,28.741666
101944,梦山,115.65559812121,28.6534726133112
144676,梨园小区,115.902697,28.622403
105376,棋杆自然村,116.107752218732,28.8177051088879
113818,棋盘岭路口,115.748633,29.117612
110990,棠墅村委会,115.995858786645,28.5002215786539
144537,楞上村委会,116.032548,28.554088
119655,楞子上,115.837238,28.499607
102027,楼下,115.635579,28.40558
105378,楼下自然村,116.11737630989,28.8234104465619
129947,榆林路（实际乐活公元城）,115.790671,28.71363
121137,榕门路中山路口,115.879311,28.679064
110097,榕门路口,115.878101,28.684433
103707,榴云路口,115.833904050918,28.7387427836808
130035,榴云路玉屏东大街口,115.833276,28.731235
143991,榴云路菊圃路口,115.833443,28.735477
134133,槐树村,115.794729,28.765041
131155,樊家,116.123,28.399138
132478,横山,116.211118,28.618312
121096,横岗,115.690022567168,28.4525949297991
112773,横岗,115.942204449866,28.5047918079834
121364,横岗头,115.640218476229,28.3507959181211
101507,横岗村,115.686971407869,28.446970525949
139137,横巷,115.924538,28.485536
108829,横河,115.970015,28.782242
112712,樱花园景区,116.020126,28.343753
116339,樵舍,115.97433,28.850349
111131,橡西巷,115.936575,28.544778
101917,欧尚停车场,115.82447,28.68086
143897,正好不锈钢,115.609116,28.865437
122580,武溪,116.05265,28.606721
117907,武警医院,115.902767,28.619923
102674,武警总队,115.886772,28.658599
111228,武阳中学,116.014639,28.520261
111229,武阳敬老院,116.016915,28.516336
111227,武阳街,116.012977,28.52319
105269,段子口,116.088453583279,28.8544693930804
122749,段家,116.188276,28.235096
122581,殷坊,116.049942,28.611203
103875,殷王新村,115.980081,28.635838
112778,毛家桥,115.987247891317,28.4331967501093
117326,毛窝,115.747361,28.768687
102566,民丰路民营大道口,115.950975,28.714443
124364,民主卫生所,116.166824,28.698541
121756,民主卫生院,116.168006837099,28.6988576543695
145862,民和一小站前分校,116.230865,28.365071
115270,民和六小,116.241898,28.374719
115203,民和四小,116.257593,28.370843
114993,民和路东口,116.250239,28.38202
114994,民和路中口,116.246479,28.382003
114995,民和镇政府,116.243034,28.381978
105982,民园路口,115.9558723,28.72101185
143469,民安路民营大道口,115.95044,28.701258
143468,民安路西口,115.947386,28.701275
116451,民富路口,115.941858,28.709418
143309,民富路科技大道口,115.95113,28.709647
143312,民强路青山湖大道口,115.948311,28.704538
105271,民德小学,116.126143120745,28.8747009510899
104931,民德路东口,115.895219,28.685516
104928,民德路胜利步行街口,115.882543,28.681097
102899,民科路民营大道口,115.947112,28.728129
139512,民营大道民丰路口,115.950013,28.716607
143310,民营大道民富路口,115.949772,28.707615
143311,民营大道民强路口,115.949697,28.705151
102649,民营科技园,115.95556,28.699122
104303,民营科技园,115.944068,28.700509
141906,氨厂,115.996435,28.658107
118280,水上公园,116.269552,28.36771
110884,水业集团,115.891806,28.645141
109576,水南罗家,116.121401915448,28.5305528402403
130610,水厂路子羽路口,115.882214,28.642344
135734,水岸观邸,115.932934,28.725402
100460,水库刘家,115.706219,28.689229
123860,水建,115.927341,28.491313
113658,水牛食品,115.811936,28.963921
100468,水碓公园,115.664001,28.726263
132479,水阁南雷,116.209178,28.614728
132480,水阁小学,116.209118,28.610989
114001,永丰垦殖场,115.809788,29.012802
137896,永修县中医院,115.815536,29.041804
137907,永修县交警大队,115.801587,29.016923
137906,永修县人民医院,115.801792,29.017971
137914,永修县政府,115.824863,29.012646
137910,永修县教育局,115.808553,29.012751
137916,永修县新人民医院,115.829453,29.019356
142137,永修县检察院,115.815533,29.012559
137915,永修县武装部,115.829603,29.014126
137908,永修县老高速路口,115.801642,29.012926
142135,永修火车站,115.809833,29.020669
113760,永修老县政府,115.804498,29.024372
137900,永修老汽车站,115.80758,29.030345
137909,永修高速交警大队,115.804417,29.013061
142133,永兴村,115.808893,29.030386
142063,永兴村,115.805226,29.042314
124677,永叔路东口,115.898216,28.670371
120003,永叔路系马桩街口,115.895048,28.668458
106510,永富路云飞路口,115.850573,28.633163
106519,永富路公交停车场,115.846031,28.622878
106526,永富路北口,115.850535,28.635627
135080,永富路桂殿路口,115.844472,28.621864
118901,永富路老洲街口,115.847994,28.628969
108217,永强路口,115.732728,28.636094
2011,永昌大道中段,115.801008,29.006108
2009,永昌大道口,115.801047,29.011068
2448,永桥路口,116.445079,28.292292
108483,汇仁大道中段,115.895890189644,28.5734998364539
111494,汇仁大道口,115.885489,28.576812
136510,汇仁大道工业一路口,115.905374,28.573475
112374,汇仁大道河州路口,115.827996,28.57402
118695,汇仁大道邓埠西路口,115.881433,28.573231
138718,汇仁大道金沙三路口,115.870568,28.57317
134901,汇仁大道金沙二路口,115.875983,28.5732
108481,汇仁大道金沙大道口,115.886102081557,28.5733416554777
123839,汉塘桥,115.990802,28.30281
118061,汉港凯旋城,115.805722,28.716091
123885,汝池路景德镇街口,115.804632,28.608274
123886,汝池路龙兴大街口,115.806341,28.611259
121307,江下村,115.634858,28.493688
104700,江中二附医院,115.977708,28.65564
121029,江中药谷,115.753095533392,28.6939766048101
109144,江南材料厂,115.996022,28.606657
108498,江南都市花园,115.903793962864,28.6981353831283
141883,江大南路南口,115.931996,28.677408
142239,江家小学,115.948222,28.366979
142242,江家村委会,115.947284,28.366369
115991,江桥,115.885746,28.844157
140230,江电,115.905881,28.66089
120327,江科附中,115.962535,28.680023
102902,江纺,115.941294,28.720461
116447,江纺中心花园,115.93577,28.72178
134043,江联迎宾大道老厂区,115.903114,28.61461
134046,江联重工新厂,116.187191,28.405076
137038,江联重工艾溪湖厂区,116.010686,28.701565
100798,江西中医药大学,115.749128,28.680548
139333,江西中医药大学北门,115.743961,28.684356
133569,江西交通技工学校,115.620446,28.562371
105361,江西传媒职业学院,115.952232465126,28.7475757401612
139121,江西信息学院,115.905293,28.591122
140576,江西农大东区北门,115.845498,28.759946
119391,江西制造学院,115.999222,28.677865
108492,江西商报,115.913638507713,28.6817693281431
144141,江西外语外贸学院,116.023894,28.702279
119398,江西工业学院,116.0209,28.694974
145802,江西工商职业技术学院南门,115.953344,28.450086
102662,江西师大青山湖校区,115.920018,28.677535
137572,江西师范大学附属外国语学校,115.740815,28.662582
100810,江西应用科技学院,115.704352,28.670297
127495,江西建设职业技术学院东门,115.880125,28.575701
138308,江西服装学院,115.945716,28.453989
113458,江西水利职业学院,115.86996049235,28.7531211395846
103480,江西水利职业学院西门,115.8679,28.754527
109563,江西现代学院,115.994612,28.678334
113402,江西理工大学,115.869923,28.746749
140218,江西生物学院,115.936395,28.565993
121117,江西电力职业技术学院北门,115.80340303,28.72360299
121030,江西省商务学校,115.764142521167,28.6909375897957
117470,江西省委党校新校区,115.774051,28.608841
121954,江西省委党校新校区西,115.770639,28.608847
117797,江西省展演中心,115.838423,28.660981
113241,江西省建设工程学校,115.844884,28.719996
102780,江西省电力公司,115.93084,28.693743
109947,江西省社会主义学院,115.868641,28.715042
105555,江西社会主义学院北门,115.95425,28.693383
117757,江西科技师范大学红角州,115.818534,28.667914
112775,江西科技职业学院,115.952700591349,28.4814480292268
108389,江西艺术中心,115.952056,28.685141
134136,江西艺术职业学院,115.818362,28.764898
100796,江西警察学院,115.759678,28.670301
143992,江西财大枫林校区南门,115.831213,28.734838
121159,江西财大麦庐园北区,115.811635,28.737514
143995,江西财大麦庐园校区,115.812269,28.734209
125173,江西财经大学枫林校区,115.829983,28.738018
124609,江西财经大学（蛟桥校区）,115.848204,28.7463
100237,江西金达莱环保,115.778431,28.700444
139360,江西青年职业学院,115.824209,28.76341
140297,江铃天人公司,115.877304,28.524636
144695,江铃西二路,115.902697,28.626729
122184,江铃西四路中段,115.900352,28.623628
143685,江铜花苑,115.971224,28.70708
122337,池溪中学,116.426596,28.401145
138013,池溪农贸市场,116.423416,28.395792
118193,汪山土库,115.908238,29.012778
139194,汽车大道迎宾中大道口,115.92459,28.532813
140296,汽车大道金沙南大道口,115.883029,28.524903
107298,汽车站,115.549683264108,28.8414086077941
141898,沈桥幸福家园,115.966929,28.646609
143448,沈桥路东升大道口,115.963413,28.641123
143447,沈桥路东泰大道口,115.968273,28.63991
117824,沙井小区,115.862319,28.699699
141807,沙井派出所,115.835806,28.687385
121933,沙井绿茵路口,115.850741,28.702634
117492,沙井路丰泽路口,115.845055,28.699286
141839,沙井路商都路口,115.840446,28.692674
117491,沙井路银都路口,115.83874,28.689888
108497,沙沟,115.908956346138,28.6967926954236
108827,沙港,115.906902,28.732018
124184,沙港小学,115.879248,28.340251
124185,沙港晏家村,115.874672,28.338845
112717,沙溪村,116.070406,28.319856
2786,沙田,115.813758,28.548835
140202,沥口桥,115.91576,28.386445
133659,沥头村,115.90995,28.331708
141557,沥山地铁站,115.90997,28.560021
124294,沥汪,116.280086,28.412997
110951,河头村委会,116.019812473926,28.4806256295321
133886,河洲路东岳大道口,115.833622,28.596069
133887,河洲路东莲路口,115.832907,28.589556
133884,河洲路八月湖路口,115.836707,28.6057
135120,河洲路鲁班路口,115.830657,28.581733
105359,河边村,115.98437003684,28.7595988005143
115143,沿江路中段,116.270642,28.370516
110804,沿河路口,115.936464,28.543355
117911,泉岭,116.073582,28.356962
131152,泉岭,116.074973685977,28.376689445044
101753,泉珠,115.608224,28.537213
101754,泉珠瓦厂,115.603518,28.531579
117304,泊园茶村,115.748066,28.794844
117063,泗洪,116.018625,28.564031
117064,泗洪小学,116.019348,28.562173
118935,泰耐克大酒店,115.85485,28.685899
102650,泰豪高新科技园,115.955479,28.691209
133276,泾口,116.159913,28.647948
133275,泾口新街,116.168145,28.647761
119683,洋湖学校,115.697618,28.567629
119685,洋湖村,115.692725,28.57501
121134,洗马池,115.88543,28.678797
102675,洪城大市场,115.882669,28.658208
143891,洪安化工,115.635072,28.889978
139321,洪崖丹井,115.725487,28.726541
144873,洪州学校,115.918138,28.558755
139339,洪恒花园,115.73809,28.702234
118550,洪校社区,115.914084,28.645973
114217,洪都中医药北院,115.84786635085,28.7012428963352
108444,洪都中医院,115.844408060226,28.7031517842785
118582,洪都中大道洛阳路口,115.923017,28.6653
143440,洪都体育馆,115.918621,28.639734
118460,洪都公园,115.920409,28.639836
102661,洪都北大道北京路口,115.9219,28.68135
118548,洪都南大道南口,115.912124,28.636255
118586,洪都南大道墅溪路口,115.916304841,28.649609833
136732,洪都大桥快速路上桥限速点,115.922654,28.678266
104917,洪都大道口,115.91833,28.658183
135726,洪都大道文教路口,115.920651,28.691901
118555,洪都大道解放西路口,115.920833,28.6598
118461,洪都实业公司,115.921887,28.641949
120005,洪都无线电厂,115.894243,28.672536
108840,洪都监狱,116.150604,28.912354
104769,洪都集团,115.915819565633,28.6354959165211
113454,洪钢住宅区,115.882112197855,28.7583191545195
112720,洲上村,116.086699,28.311006
133278,流坊,116.151342,28.601867
102426,流湖,115.723168374935,28.4723764573405
101291,流湖南岗村,115.761697,28.489914
121302,流湖魏家村,115.666204,28.487398
139161,浃溪村,115.948633,28.403473
122220,海嘉路八月湖路口,115.885545,28.603939
122219,海嘉路口,115.885703,28.60689
118197,海昏侯工作室,115.945689,29.032483
140628,海棠北路,115.815756,28.752826
140629,海棠北路青岚大道口,115.817722,28.755408
143996,海棠南路枫林西大街口,115.808842,28.735622
129990,海棠南路瑞香路口,115.807913,28.722337
129991,海棠路南口,115.807704,28.727449
113399,海立,115.876231,28.757111
122588,涂坊,116.017582,28.623101
137895,涂埠镇政府,115.818576,29.042993
101752,涂家,115.614637,28.540276
115210,涂家小学,116.248279,28.360024
122578,涂家洲,116.074354,28.597877
122569,涂村,116.124178,28.578963
102570,涂黄村,115.945651,28.708846
109557,涴溪新村,116.100857,28.666785
121303,淑溪村,115.659329,28.485848
117047,淡溪村,115.955742,28.565452
143333,深圳农贸批发市场,115.92896,28.612468
108474,清水湾,115.870278974312,28.6043547263113
116004,清淇揭家,115.930997,28.938728
116078,清淇村,115.91751,28.94624
111226,清溪村,116.010437,28.530024
120592,渐头,115.866846368737,28.448481465029
103750,渡口,115.824313,28.572983
109558,渡口村,116.0891,28.66969
109159,渡头,116.093962,28.545659
122031,渡头卫生院,116.098145,28.545387
117912,温圳,116.088646,28.357379
137199,温圳停车场,116.079148,28.34813
102025,港北,115.651634,28.393518
102026,港北村,115.639391,28.404295
122892,港口大道,115.891567,28.762354
113456,港口新村,115.880055277067,28.7532001387983
110140,港头村,116.128195,28.725312
121242,港子口桥（永战村）,115.94485,29.001788
105399,港子口码头,115.929429,28.746146
105400,港子口自然村,115.931446,28.748406
102033,港西中学,115.618881,28.436485
124182,港西刘家,115.88827,28.341534
123288,港霞村,115.782249,28.800293
142141,湖东路,115.824393,29.020665
123375,湖家,116.177529,28.496973
102576,湖滨,115.938416,28.695015
116456,湖滨东路口,115.927322,28.689157
138113,湖滨东路民生路口,115.941282,28.713053
138114,湖滨东路江纺花园路口,115.933684,28.714949
121429,湾里(洪崖丹井),115.729015,28.725039
129466,湾里五小,115.717363,28.701373
138673,湾里公交枢纽,115.741006,28.699994
100698,湾里商业文化街,115.730216384037,28.7323492252701
138672,湾里四小,115.736755,28.703506
102253,湾里大道东口,115.764404265483,28.7026538825062
102257,湾里大道西口,115.737033873757,28.706468069466
145839,湾里妇保所,115.73144034,28.7138279
139322,湾里工行,115.726278,28.723848
100806,湾里新一中,115.718469,28.702789
123273,湾里旅游集散中心,115.727114,28.728101
102254,湾里水司,115.758796078314,28.7046144458968
122216,湿地公园,115.894758,28.618547
116555,源溪,115.958039,28.340433
111853,源溪涂家,115.962945,28.502188
121241,溪头村,115.925135,29.000779
124180,溪湖山村,115.903469,28.350183
110991,溪西王家,116.003197927987,28.4717727386226
110998,溪西龙家,116.003230383001,28.4767234630671
144795,溪霞大道罗亭大道口,115.823293,28.901198
131343,溪霞村,115.84346,28.857876
108966,滁槎,116.091636,28.76838
145161,滁槎派出所,116.090997,28.758964
108967,滁槎粮管所,116.093679,28.769486
108917,滕州,115.923652,28.751456
105227,滕村,115.962373,28.754611
110096,滕王阁,115.877382,28.681275
110095,滕王阁地铁站,115.873065,28.676223
113641,滨湖东路中段,115.823761,29.024798
115310,滨湖公园,116.25018,28.386301
115308,滨湖大道中口,116.256161,28.382163
115313,滨湖大道西,116.245605,28.395073
115314,滨湖大道西口,116.241539,28.397105
115190,滨湖森林公园,116.239288,28.402648
142140,滨湖路中段,115.824758,29.016869
142139,滨湖路口,115.821253,29.010995
135674,滨湖路口,115.824526,29.019586
119654,滩上,115.844299,28.504308
132872,漳溪姜家,115.868517,28.313243
132874,漳溪晏家,115.86152,28.328388
124186,漳溪老下村,115.86358,28.333911
132873,漳溪郭家,115.862525,28.321371
121087,潢坊村,115.679038882984,28.3913008657994
108232,潢源村,115.673224,28.658073
140199,潭岗,115.897955,28.333652
131539,潭林万家,116.0562555,28.53280946
131541,潭林村,116.055421,28.529577
131538,潭林村委会,116.054692,28.539577
131540,潭林赵家,116.05649524,28.5365817
140261,澄湖东路农贸市场,115.933947,28.544048
108764,澄湖东路北口,115.933154,28.555594
138877,澄湖东路南口,115.934583,28.536015
111387,澄湖东路口,115.932338,28.559048
131593,澄湖东路振兴中路口,115.924256,28.580623
138878,澄湖东路莲富路口,115.934379,28.539153
110810,澄湖中路莲西路口,115.923077,28.551078
133323,澄湖北大道澄湖西路口,115.921995,28.559832
141556,澄湖北大道莲西路口,115.915259,28.56002
108763,澄湖北路中段,115.926738,28.55981
111685,澄湖北路中段（南昌县新县政府）,115.931054,28.560327
144869,澄湖大厦东,115.928465,28.562442
144891,澄湖大厦东,115.916948,28.568455
111120,澄湖西路北口,115.918757,28.581809
137720,澄湖西路澄湖中路口北,115.926616,28.55463
137719,澄湖西路澄湖北大道口,115.925136,28.557613
117528,澄湖西路澄湖北大道口北,115.923554,28.561919
142266,澄湖西路莲富路口,115.929935,28.540824
133285,澄碧湖公园东门,115.934132,28.552409
140269,澄碧湖公园南门,115.931922,28.545735
110808,澄碧湖公园西门,115.928886,28.550522
110137,灌头山,116.124184,28.711858
142364,灌婴路东口,115.895679,28.644614
113053,灌婴路中段,115.879297,28.648022
135413,灌婴路口,115.86156,28.654353
131537,灌溪村委会,116.063574,28.548071
106127,火炬三路高新六路口,115.965819,28.704678
108376,火炬五路东口,115.981777,28.718636
105661,火炬五路俊彦路口,115.981947,28.716236
143679,火炬六路,115.960938,28.725217
105553,火炬大街京东大道口,115.965921,28.695622
102842,火炬大街高新二路口,115.949778,28.692524
105554,火炬大街高新五路口,115.9596,28.694365
105976,火炬广场,115.94545,28.691633
102256,火盘新村,115.745222639804,28.7055947275921
108278,火车站,115.912994,28.666676
144215,火车站东广场,115.916886,28.66485
120011,火车站西,115.911062,28.667143
121156,灯泡厂,115.802597,28.733664
107343,炉南村,115.539232907725,28.83531212296
142228,炮兵营,115.917652,28.411308
138789,焕章路口,115.895721,28.602368
139159,煤田,115.95537,28.414535
105402,熊万后万村,115.932155,28.760327
105401,熊万村,115.9349,28.752949
105403,熊万王村,115.936076,28.762553
112439,熊坊,115.917605,28.616142
122030,熊家自然村,116.102273,28.553278
144457,熊庄,115.949411,28.610343
118565,燃气公司,115.917428,28.700756
122803,燕归北路,116.120751,28.287758
102777,燕鸣岛公园,115.936651,28.70006
140331,爱国东路三经路口,115.893697,28.697072
101762,爱民砖瓦厂,115.619833,28.471197
136896,爱莲街瑶湖东大道口,116.065989,28.658585
136897,爱莲街西口,116.054792,28.658669
132265,牌坊楼下,116.115432,28.605442
122589,牌坊秦家,116.012852,28.624919
132264,牌坊荣岗,116.117958,28.600296
132263,牌坊黄旗岗张家,116.118278,28.595373
133660,牌楼路口,115.913764,28.332267
144950,物华路,115.738174,28.643433
137256,物华路兴业中大道口,115.735628,28.646046
137255,物华路华亿路口,115.740105,28.641254
112777,物探大队,115.976211948272,28.4437442055349
140380,物流北街东口,115.77514,28.643955
145572,物流大道东口,115.941164,28.463557
145573,物流大道西口,115.92825,28.457983
118281,物资局,116.267715,28.368473
117311,狮子峰,115.719697,28.810495
138641,狮岗罗家,115.790966,28.886765
121240,献忠村,115.922203,29.000413
101313,玉丰,116.225345,28.887435
144584,玉兰路云海路口,115.860674,28.623905
144586,玉兰路云锦路口,115.86535,28.630538
144585,玉兰路云飞路口,115.8632,28.627476
106472,玉兰路口,115.861772,28.626891
144033,玉壶山大道裕泰街口,115.733859,28.628319
121590,玉壶山大道龙兴大街口,115.736005470657,28.6253539871612
103715,玉屏大道西口,115.800283349514,28.7280250010275
129250,玉屏西大街,115.802842,28.727836
114095,玉屏西大街海棠南路口,115.806456,28.727526
114097,玉屏西大街青岚大道口,115.816174,28.726541
137729,玉岸村,115.899422,28.546445
143223,玉沙东苑,115.882416,28.556627
141564,玉湖路金沙二路口,115.873482,28.549156
141563,玉湖路金沙大道口,115.880657,28.54918
131153,王家,116.096595,28.383022
100462,王家堎,115.703717,28.691058
101941,王家村,115.66786148465,28.6466817992275
136144,王家桥,116.065692,28.51312
105264,王家桥,116.051349260586,28.812509223296
108975,王岭村,116.155901,28.785852
143609,玛丽女王学院,115.79001,28.649862
122888,环球公园,115.836649,28.731522
133389,现代学院南门,115.99386,28.670691
107160,玲岗湿地公园,115.699586,28.64332
111799,玻璃厂,115.891261,28.525353
101940,珂里符家,115.669878126638,28.6418995357882
101048,珑庭路翠苑路口,115.828268121135,28.6815390478177
102669,珠宝街,115.88633,28.675096
140275,珠江路地铁站,115.870307,28.709984
140142,珠江路红谷北大道口,115.874154,28.709293
143604,理科生命大楼,115.794041,28.662013
139335,琴街,115.741261,28.693244
121118,瑞香路范家路口,115.811157,28.723135
123376,瑶前村,116.206727,28.441098
144150,瑶北互通,116.060299,28.741626
145222,瑶北互通收费站,116.066445,28.743521
136893,瑶湖东大道麻中街口,116.066255,28.665445
136042,瑶湖大桥,116.035929,28.675077
141724,瑶湖师范大学,116.033748,28.681909
132284,瑶湖段家,116.04751,28.716496
144142,瑶湖胡家,116.031176,28.711238
106344,瑶湖西七路东口,116.061494,28.729005
106346,瑶湖西七路光大路口,116.058174,28.734158
106347,瑶湖西七路天祥大道口,116.055476,28.737498
106334,瑶湖西五路创新大道口,116.034171,28.728631
106340,瑶湖西五路北口,116.041171,28.719845
106350,瑶湖西六路瑶湖西大道口,116.053153,28.725151
106349,瑶湖西六路西口,116.049344,28.729134
132283,瑶湖西大道瑶天路口,116.03991044,28.70957536
132280,瑶湖西大道瑶湖西一路口,116.03356739,28.68520736
132286,瑶湖西大道瑶湖西七路口,116.05585,28.725367
132282,瑶湖西大道瑶湖西三路口,116.034818,28.703158
132281,瑶湖西大道瑶湖西二路口,116.032658,28.696866
106343,瑶湖西大道瑶湖西六路口,116.053104,28.723961
136043,瑶湖郊野公园,116.052616,28.672479
136044,瑶湖郊野公园东,116.056601,28.672337
144729,璜北路昌樟路口,115.762976,28.595362
101927,璜垦,115.742531742042,28.6391258229934
137254,璜垦街百丈山路口,115.741716,28.635492
101929,璜溪,115.726943644513,28.6315698467594
137261,璜溪大道兴业一路口,115.717332,28.645368
144954,璜溪大道兴业中大道口,115.722067,28.641499
144953,璜溪大道兴业二路口,115.719606,28.643632
121589,璜溪村,115.732270552858,28.6301653171355
140207,瓜山,115.921545,28.475654
142631,瓦子角,115.88681,28.678072
101932,甘家山,115.698928672032,28.6108626460674
114374,甘舍胡赵村,115.846972,28.852869
108922,生园,115.99304,28.792246
121309,用桥李家,115.632446,28.509872
109154,田坪,116.065625,28.560727
108228,田垅村,115.682974,28.666863
119679,田垅村,115.694272,28.526732
100467,田尾村,115.672254,28.726702
119248,田湖,115.556108,28.81691
123605,田白,116.075479,28.385922
102667,电信大楼,115.896641,28.675771
122582,电台,116.049072,28.615068
112719,畔上村,116.083038,28.313143
122746,白圩乡,116.2509,28.262956
112718,白城村,116.076497,28.316177
120654,白岸村,116.032761330876,28.7397436564596
138011,白果,116.278265,28.378133
113396,白水湖公交停车场,115.882166,28.772606
113455,白水湖学校,115.881978093204,28.7543324608618
113452,白水湖路,115.882158357217,28.7669723350592
137905,白莲广场,115.802998,29.021482
142136,白莲粮库,115.807568,29.014246
112834,白虎岭,116.011227159958,28.3397513618059
143890,白路村,115.62788,28.889486
101930,白马山,115.715770357823,28.6247790326757
122807,百源,116.217026,28.249768
104923,百花洲,115.891748,28.678892
110073,省交通厅,115.823134,28.632126
142484,省人民医院,115.887685,28.69153
117974,省人民医院北门,115.883254,28.696652
123893,省公安厅,115.825949,28.633082
112432,省农科院,115.938753,28.56175
119392,省勘察院,116.007643,28.677616
102901,省化工技校,115.942229,28.725452
141290,省图书馆新馆,115.87745,28.70755
105645,省女子中专,115.93671,28.68491
102665,省府大院,115.905285,28.677338
114104,省林科院,115.815961,28.744812
102814,省消防总队,115.871809,28.656973
118559,省电视台,115.923383,28.673033
139111,省皮肤病医院,115.902251,28.63018
118563,省社科院,115.920267,28.694
108289,省科学院,115.926537725478,28.6852351888531
104567,省肿瘤医院,115.949377,28.677607
108503,省胸科医院,115.887961653694,28.6881378895504
121901,省艺术中心东门,115.955782,28.684186
107736,省行政中心,115.809566,28.637567
110087,省行政中心九龙广场东,115.811059,28.637385
132951,省行政中心九龙广场西,115.806412,28.637659
107589,省行政中心西门,115.803044,28.643678
145304,省赣管局向塘服务中心,115.966884,28.436794
119644,省送变电公司,115.916536,28.547613
144804,省高级人民法院,115.858562,28.703962
1902,看守所,116.190128,28.389617
120993,石冈村委会,116.11315658062,28.6412564856534
131345,石咀村,115.8133,28.854402
122335,石坑,116.428355,28.460212
101935,石埠中学,115.678871259827,28.6089497406917
119687,石埠中心小学,115.681345,28.591264
101943,石埠林场,115.661648047174,28.6505076099789
119688,石埠街,115.680881,28.595332
145471,石墙闵村,116.095262,28.70756
111291,石岐·昌南水厂,115.816423,28.543083
111290,石岐安置房,115.82068,28.54303
135087,石岐过渡房,115.823849,28.542936
101765,石岗,115.622167,28.45015
101761,石岗砖瓦厂,115.614881,28.479267
120960,石岗路中段,115.758771688656,28.6580449458709
121765,石岗陶家,116.184434954767,28.7414477117222
101764,石岗风雨亭,115.62586,28.461715
123379,石桥,116.257417,28.445771
120990,石梁加工厂,116.127916528791,28.6553120511852
105374,石矶自然村,116.088989912865,28.8149539043809
123287,石门赵家,115.771437,28.800596
143607,研究生院,115.793061,28.657985
102427,碟子湖大道,115.868788500899,28.7244798065491
140334,碟子湖大道怡园路,115.833152,28.686114
141852,碟子湖大道飞虹路口,115.855822,28.707282
127577,礼步湖大道,115.817967,28.698404
107303,社保局,115.546836055575,28.8492064113678
101287,社林周家,115.780131,28.471377
109595,祝家村,116.108412251569,28.5028047048513
133662,祝巷刘家,115.928135,28.335169
115667,神农东大道国药北大道口,115.830219,28.940326
135640,神农西大道口,115.823553,28.938174
116205,祥和三路,115.924020006778,28.8242450992475
118081,祥和四路南口,115.920745,28.822336
115249,祥和路口,116.249778,28.374537
113056,祥狮路口,115.874736,28.633209
117053,福仙食品厂,115.975204,28.577087
103215,福州路东口,115.911406838415,28.6863128705049
143199,福田花园,115.882283,28.668046
121703,福祥家园,115.951008435257,28.6342265526477
108835,禾洲舍猪场,116.095584,28.85788
102776,秀泊经典,115.94164,28.701083
112785,秋园路口,116.011059137997,28.3527855620168
117787,秋水广场,115.859822,28.689487
140134,秋水广场地铁站,115.853773,28.684904
114983,种子公司,116.259027,28.365671
108221,科发路口,115.71188,28.644539
121895,秦胜村,115.955416,28.653812
142943,稀土厂,115.999887,28.59526
119686,程家老基路口,115.684761,28.585274
139142,空军部队,115.922151,28.447778
131757,立交桥,116.257637,28.366074
120682,立新村,116.143049,28.810045
145861,站前大道进贤火车站,116.238943,28.359787
103138,站前西路前进路口,115.892447225466,28.6644232407648
134441,章家,116.014884,28.657072
107292,童装厂,115.587414386846,28.8447241210252
101742,竹园,115.661973,28.585627
116549,竹山,115.956261,28.324975
138649,竹山,115.772033,28.831411
142078,竹山村,115.815073,29.136839
132261,竹林姚家,116.119898,28.583956
132262,竹林熊家,116.119868,28.585556
132260,竹林路口,116.120168,28.579306
117307,竹海明珠,115.73297,28.801217
104309,第二干休所,115.943949,28.675128
145399,第二水厂,115.769974,28.179118
119684,筛岗村委会,115.695616,28.570427
111237,管头铺李家,116.040052,28.486147
112725,箭江闸,116.089069,28.280737
110135,篁山村,116.121599,28.699076
141827,系马桩,115.893168,28.668183
120004,系马桩街三眼井街口,115.894216,28.669911
117772,紫云路口,115.910686,28.710793
144453,紫坊村,115.933774,28.622526
125171,紫荆路口,115.827343,28.745957
117484,紫金园,115.832545,28.659184
109467,紫阳东大道口,116.05797,28.67272
141102,紫阳大道创新一路口,115.987376,28.677607
119393,紫阳大道长旺路口,116.012606,28.6775
138654,紫阳宫,115.753503,28.80112
118294,红壤,116.165933,28.365313
118297,红壤研究所,116.166475,28.35187
143892,红山大道路口,115.64013,28.889583
118295,红山村,116.1659,28.35694
101509,红岗村,115.688757300338,28.4372681606865
118080,红岭花园,115.831504,28.672663
109546,红旗街,116.18502,28.716705
124579,红星小学,115.954285,28.770727
2509,红星小学,116.394768,28.686968
100469,红星村,115.659499,28.72572
109542,红星老电站,116.225588,28.72238
101945,红林林场,115.646223461158,28.6536160812144
133570,红桥村路口,115.610368,28.572657
109547,红湖电厂,116.183099,28.715126
109270,红湖电站,116.18259,28.714039
138647,红源小学,115.778279,28.841683
102800,红苗小区,115.873457,28.653391
117755,红角洲管委会,115.827063,28.672771
121126,红谷世纪花园D区,115.853589,28.699435
117789,红谷中大道世贸路口,115.85006,28.685331
121130,红谷中大道北口,115.867045,28.697826
143165,红谷中大道南口,115.846732,28.67325
121129,红谷中大道地铁站,115.863463,28.69546
117790,红谷中大道怡园路口,115.849109,28.68165
117791,红谷中大道翠街口,115.847938,28.677323
140609,红谷北大道濠江路口,115.874078,28.705994
140610,红谷北大道闽江路口,115.876244,28.709997
106995,红谷南大道北口,115.844923,28.668989
110092,红谷南大道岭北一路口,115.832531,28.650124
110071,红谷南大道岭北三路口,115.827457,28.642823
110070,红谷南大道岭北二路口,115.829799,28.646723
117802,红谷南大道岭北五路口,115.823189,28.636031
106994,红谷南大道岭口路口,115.841898,28.665054
117788,红谷大厦,115.856521,28.689346
141805,红谷滩万达广场西,115.843154,28.697228
138995,红谷滩区市民中心,115.811853,28.628981
140605,红谷滩区政府,115.853903,28.701171
114215,红谷滩派出所,115.846530029537,28.6973970324056
142679,红谷滩湿地公园,115.829494,28.641189
115941,红谷滩配套中心,115.85463,28.70738
114219,红谷滩配套中心（下客站）,115.851950389021,28.7070574940786
112331,红谷配套,115.853259,28.706778
122574,纱厂,116.099936,28.582491
114088,经开区富樱路公交首末站,115.82418,28.751577
113365,经开区消防中队,115.882416,28.769772
113401,经开大道双港东大街口,115.876171,28.747946
103477,经开大道蛟桥路口,115.876356,28.768926
109719,绳金塔（西湖区烟草局）,115.897277,28.665487
144378,绿地国博览城中心,115.793568,28.610132
110083,绿地国际博览中心东,115.793783,28.608116
123884,绿地国际博览城中心三号门,115.795018,28.60933
117476,绿地悦城,115.806576,28.62248
110113,绿地未来城,116.071875,28.677248
121125,绿茵路地铁站西,115.852237,28.701709
121127,绿茵路江报路口,115.856272,28.695439
105978,罗万罗谢村,115.952443,28.696187
1905,罗丙路,116.194246,28.372208
138640,罗亭,115.78903,28.891157
138638,罗亭中学,115.778829,28.889904
138639,罗亭农贸市场,115.78596,28.890993
144809,罗坪村东,115.896808,28.942119
144808,罗坪村北,115.897357,28.947423
134598,罗坪村（昌九大道站）,115.892022,28.936982
134207,罗家,115.994095,28.356982
103882,罗家大道昌雄路口,115.984081,28.630714
100797,罗家村,115.756866,28.67333
110946,罗家港,116.017266818453,28.469118002491
109574,罗家老村,116.119813636235,28.5268465085907
103880,罗家镇政府,115.982472,28.628474
122592,罗家集,115.985292,28.636227
104757,罗家集停车场,115.990139,28.631993
104677,罗家集停车场南,115.987859,28.631873
104758,罗家集农贸市场,115.991205,28.62854
122591,罗家集铁路口,115.9926,28.630101
101758,罗山,115.610985,28.488399
137523,罗山村,115.612218,28.487764
104759,罗岗路口,115.988977,28.624661
121300,罗桥村,115.68579,28.486926
134205,罗渡,115.994385,28.324982
118292,罗溪,116.195653,28.370183
1884,罗溪镇停车场,116.159068,28.413733
138018,罗盘,116.536839,28.463746
122577,罗舍,116.079601,28.594337
122576,罗舍路口,116.082718,28.590788
122199,羊子巷,115.894583,28.67653
108438,翠苑路,115.843568370944,28.6754153174349
117792,翠苑路东口,115.849166,28.674087
140335,翠苑路中宦路口,115.844951,28.674956
117487,翠苑路中段,115.841005,28.676221
100254,翠苑路凤凰中大道口,115.836007,28.678359
117488,翠苑路西口,115.831901,28.680502
106513,翠菊路,115.858075,28.628475
137899,老城桥头,115.807224,29.039538
118275,老天桥,116.262732,28.359605
105406,老屋,115.952602,28.769794
116115,老屋山,115.851292,28.802423
100242,老年公寓,115.792901,28.692647
135076,老洲街口,115.843263,28.632348
114982,老火车站,116.259873,28.364225
131760,老看守所,116.249633,28.358894
101933,老石埠,115.690971111755,28.6062238505314
108277,老福山南,115.905556,28.664653
131753,老菜市场,116.265174,28.373269
118282,老邮电局,116.26455,28.370168
142079,老黄金山,115.820867,29.136832
104319,聂村,115.941517,28.634283
117977,聆江花园,115.895859,28.703465
143421,聆江花园（三经路）,115.896964,28.702213
103607,联博科技园,115.875347920627,28.8051801751266
122028,联合,116.114645,28.560675
118196,联合村,115.933381,29.02917
101304,联圩村,116.103185,28.818071
115938,联圩桥头,116.079568615727,28.9171231144905
115939,联圩湾上,116.095722106254,28.9230890000303
115934,联圩街上,116.0540235042572,28.959864377975464
109004,联圩闸,116.138001,28.839758
124935,联富花园,115.73687,28.63305
105219,联谊路东口,116.018819,28.763179
120705,联谊路亲民路口,116.022266,28.763228
105220,联谊路西口,116.015687,28.763266
136025,肖坊小学,115.95138,28.663889
141889,肖坊村,115.943746,28.665241
133277,肖家,116.155953,28.636609
120688,肖家,116.049881,28.773681
120687,肖家闸,116.061773,28.776166
131759,胜利南路,116.251953,28.361032
131756,胜利路中口,116.260213,28.368156
111991,胡华村,115.997982,28.550705
111990,胡华村南口,115.997075,28.543902
111989,胡华村工业区,115.993165,28.542848
111224,胡华桥,115.996432,28.536857
120885,胡家,116.237157,28.397379
144460,胡家村,115.962578,28.606692
144467,胡家路东升大道口,115.960188,28.6099
121785,胡家路中段,115.966005882465,28.6101743935039
121784,胡家路昌东大道口,115.969823316578,28.6107448431282
144458,胡家路西口,115.95423,28.610071
121794,胡村,115.951548366036,28.6449005143831
111898,腰步档,115.918322595557,28.5091262530728
139160,腰脯村,115.95465,28.412644
117839,腾蛟路口,115.909708,28.709971
103542,舍里甲,115.844622,28.727732
116544,舒家,115.9824,28.312274
114987,舒芬街路口,116.260922,28.374049
140858,航空办,116.1066,28.724345
140860,航空城,116.104314,28.737185
104808,航空城北门,116.109407181602,28.7297066156568
110114,航空城大道,116.074324199026,28.6748971752658
144154,航空城大道天祥大道口,116.094436,28.749606
132174,航空城大道爱莲街口,116.071937,28.659349
145478,航空城宿舍,116.105905,28.73021
140861,航空大道中段,116.097385,28.745715
143334,航空路北口,115.92899,28.62263
104325,航空路口,115.928803,28.614858
110134,船子头,116.126327,28.693994
141817,船山路南浦路口,115.885802,28.67125
111876,良种场（东）,115.953742752799,28.5152973964371
115740,良门村,116.066325,29.046245
121787,艺纺夜市,115.961538672332,28.6172337076046
142126,艾城中心小学,115.767722,29.096081
142127,艾城交警中队,115.765516,29.08947
142069,艾城交警大队,115.767617,29.093148
142128,艾城公路段,115.765456,29.087183
113817,艾城卫生院,115.764082125115,29.1020805670186
142125,艾城税务局,115.765536,29.09997
142129,艾城老街,115.765566,29.084322
113815,艾城老街,115.767699324613,29.0972420239837
144605,艾家村,115.7776771,28.47430667
109354,艾家自然村,116.222293,28.668849
108378,艾湖路口,115.976904,28.716127
143569,艾湖路艾溪湖北路口,115.977614,28.713976
143568,艾湖路高新七路口,115.972094,28.708923
133916,艾溪湖一路口,115.98628,28.687769
106323,艾溪湖三路东口,116.010998,28.693874
134279,艾溪湖三路创新一路口,115.99901059,28.69745747
106324,艾溪湖三路创新三路口,116.00686,28.695411
134280,艾溪湖三路创新二路口,116.00380557,28.69618816
134282,艾溪湖三路创新大道口,116.01177545,28.69556683
123413,艾溪湖三路昌东大道口,115.99405,28.698678
145078,艾溪湖东地铁站北,115.988936,28.679167
105735,艾溪湖东路口,115.993885,28.713404
124641,艾溪湖二路创新二路口,115.997045,28.692119
102642,艾溪湖北路京东大道口,115.966369,28.714412
143570,艾溪湖北路俊彦路口,115.983596,28.716006
102640,艾溪湖北路高新五路口,115.962752,28.714413
109626,艾溪湖南昌路昌东大道口,115.978194,28.67124
136033,艾溪湖南路创新一路口,115.983938,28.671414
136034,艾溪湖南路创新二路口,115.988644,28.671086
136036,艾溪湖南路创新大道口,116.003535,28.670518
136032,艾溪湖南路昌东大道口,115.981564,28.671422
136038,艾溪湖南路黄村路口,116.010018,28.670481
106326,艾溪湖四路东口,116.01178,28.701057
124706,艾溪湖四路昌东大道口,115.997895,28.704809
119388,艾溪湖大桥西,115.964187,28.67753
139422,艾溪湖第二小学,116.005806,28.716863
116819,艾溪湖第二小学北,116.007897,28.718533
145072,艾溪湖西地铁站,115.967641,28.677481
145164,芦源三坊熊村,116.074347,28.746329
144151,芦源三房熊村,116.077514,28.747211
112892,花博路,115.916891574792,28.598213593247
107297,花园路口,115.552980158328,28.8416581727472
113287,花果山南路,115.820347,28.690755
120998,花果山路,115.821634,28.694352
108786,芳湖,116.070969,28.512264
108473,芳湖苑,115.863913701568,28.604855537008
113028,芳湖路,115.875043,28.608857
122218,芳湖路东口,115.890675,28.607271
133838,芳湖路东祥路口,115.84646,28.61304
113027,芳湖路中段,115.871446,28.609228
133837,芳湖路桃新大道口,115.855727,28.612878
111295,芳草路,115.879403,28.588931
111296,芳草路东口,115.88588,28.588982
108477,芳草路西口,115.876614222184,28.5906219698393
109733,苏圃路儿童医院,115.892249108219,28.6898050638873
133571,英山村村委会,115.609568,28.609076
103474,英雄五路,115.863347,28.778876
105513,英雄大桥,115.912954,28.71423
108222,范垅,115.695999,28.647277
129032,范家新村,115.802758,28.699342
114099,范家新村东华理工大学,115.823699,28.721062
140676,范家路黄家湖西路口,115.812086,28.719692
108921,茅莲湖,115.986212,28.790404
111239,茌港,116.040106,28.48088
100466,茶园山林场路口,115.681984,28.721048
138645,茶岭李家,115.78428,28.853261
138644,茶岭林场,115.78634,28.859172
112774,荆山村,115.950121539442,28.4875606214069
120590,荆林村口,115.871027733877,28.4242620660252
133573,草山村,115.577856,28.549642
107456,荣凯不锈钢,115.60744532482,28.8572344944146
3364,荣坊桥头,116.018843,28.550642
121304,荣坊魏家,115.647985,28.48476
124181,荷山村,115.896572,28.34145
112657,荷溪,115.967171051151,28.3587440108617
109157,荷溪张家,116.080154,28.55214
108948,莘洲村委会,115.963245,28.777784
127433,莱卡小镇,115.800508,28.702076
127432,莱卡小镇北,115.800898,28.706566
111256,莲塔路西口,115.949045,28.536925
111487,莲塘一中,115.923024,28.564241
103373,莲塘一中东新校区,115.839803,28.595649
117527,莲塘一中东门,115.922284,28.567103
144874,莲塘一中西门,115.919682,28.555236
127494,莲塘三中,115.875244,28.581052
144877,莲塘三小东,115.914319,28.550926
119643,莲塘二中,115.918581,28.547361
119629,莲塘公交首末站,115.939831,28.558521
140260,莲塘六中,115.933754,28.547006
140219,莲塘北大道,115.93281,28.571986
140220,莲塘北大道小蓝北路口,115.931275,28.575815
138892,莲塘北大道小蓝北路口（BRT）,115.930907,28.57668
140214,莲塘南大道五一路口,115.941206,28.538778
116573,莲塘南大道口,115.941554,28.5434
140213,莲塘南大道新莲武路口,115.940871,28.533943
110798,莲塘南大道陈田路口,115.940389,28.530221
145290,莲塘南大道陈田路口（BRT),115.940789,28.531777
110809,莲塘县建材市场,115.926491,28.551473
142216,莲塘四中,115.920274,28.540521
139195,莲塘四小,115.929905,28.536829
101506,莲塘村,115.715870395085,28.4747221442367
110807,莲塘镇政府,115.929755,28.54623
139196,莲富路中段,115.928035,28.540821
144845,莲富路莲西口,115.924436,28.541356
145800,莲溪大道星城大道口,115.944442,28.444732
119249,莲花,115.554665,28.802795
139839,莲花桥,116.089901,28.493315
139891,莲花桥,116.084309,28.483412
119611,莲西,115.921781,28.546903
139131,莲西桥北,115.925548,28.529233
112425,莲西路,115.922894025347,28.5448789368277
112891,莲西路北口,115.91230971,28.59378807
112890,莲西路南口,115.912481828744,28.5833558354181
133288,莲西路小蓝北路口,115.913252,28.575943
138706,莲西路澄湖北大道口北,115.916968,28.562714
113356,菊圃路口,115.820163,28.733823
143993,菊圃路富樱路口,115.825353,28.734332
143994,菊圃路青岚大道口,115.818357,28.733318
110133,葛溪李家,116.123533,28.682811
115251,董源路东口,116.256327,28.374664
105357,蒋巷中学,116.023794616093,28.760335887699
105356,蒋巷交管所,116.01953,28.7675
101316,蒋巷交管站,116.020755,28.767557
120655,蒋巷徐家,116.023865336854,28.7557684670468
105229,蒋巷曹村,115.954467,28.749997
105222,蒋巷镇政府,116.012962,28.765851
135733,蒋巷高梧村,115.946936,28.73238
108823,蓝海购物广场,115.898999,28.695013
108234,蔬菜基地,115.666257,28.652869
121028,蔬菜村,115.746530005957,28.6969971633725
135898,藏珑小区东门,115.78543,28.610352
134586,虎庄村,115.85061,28.934542
131852,虚拟,116.407613,28.585253
131859,虚拟,116.407432,28.57457
131161,虚拟,116.104936,28.395536
134033,虚拟,115.983008,28.436874
134034,虚拟,116.04117,28.37167
134038,虚拟,116.082488,28.356203
134039,虚拟,115.990642,28.43007
134608,虚拟,115.956028,28.467198
137950,虚拟,116.137245,28.367415
133119,虚拟,115.958119,29.038355
133125,虚拟,115.93846,29.043321
133127,虚拟,115.943602,29.031014
141725,虚拟,116.033313,28.676733
141726,虚拟,116.020596,28.674585
141728,虚拟,116.020146,28.693149
118934,虚拟,115.87109,28.699393
140829,虚拟,115.965883,28.556367
140830,虚拟,115.963488,28.538021
131293,虚拟,115.86777,28.746746
129269,虚拟,115.81225,28.727008
131274,虚拟,115.824404,28.745719
143020,虚拟,115.861177,29.059624
143021,虚拟,115.874675,29.065711
143022,虚拟,115.886448,29.07314
143015,虚拟,115.942943,28.837798
143878,虚拟,115.942185,28.827992
143879,虚拟,115.875634,28.728674
137567,虚拟1,116.272806,28.612971
136909,虚拟1,115.965096,28.671358
142168,虚拟1,115.720106,28.703006
135879,虚拟10,115.816198,28.737304
135839,虚拟12,115.823236,28.746022
142180,虚拟13,115.749469,28.695432
135829,虚拟2,115.8869,28.760619
143690,虚拟2,115.981835,28.714371
142904,虚拟3,115.953115,28.701271
142185,虚拟3,115.742091,28.699716
143691,虚拟3,115.983462,28.719757
136912,虚拟4,115.955838,28.678489
142171,虚拟4,115.723973,28.714844
143692,虚拟4,115.979536,28.721076
142906,虚拟5,115.961689,28.69461
136913,虚拟5,115.95458,28.685168
142907,虚拟6,115.964289,28.695064
142188,虚拟6,115.734639,28.706869
143683,虚拟7,115.962596,28.698106
135836,虚拟9,115.834306,28.742802
141131,虚拟前坊镇,116.225969,28.526352
144238,虚拟城南公交枢纽,115.933941,28.633977
144229,虚拟安义石鼻收费站,115.550059,28.760974
140544,虚拟站1,115.994587,28.725191
140534,虚拟站4,115.963298,28.686619
140547,虚拟站4,115.967988,28.715485
140535,虚拟站5,115.968098,28.692189
127355,虚拟车塘湖路口,115.892383,28.786398
143438,虚拟限速28,116.06743,28.329231
142958,虚拟限速点（下昌南大道上昌东大道）,115.967609,28.59521
141132,虚拟马岗,116.217987,28.530746
127354,虚拟高椅山二路口,115.88405,28.786377
134210,蚕桑厂茶研究所,116.008878,28.37293
115967,蛟桥,115.845290194988,28.7714033134374
113409,蛟桥镇政府,115.839402,28.739535
111828,蛟溪,115.958172,28.513526
124183,蛟溪李家,115.884454,28.340966
111850,蛟溪村委会,115.964099,28.517355
111849,蛟溪桥头,115.964894,28.515574
110942,蜀溪傅家,116.006245627698,28.463509021805
121812,血防站,115.80492878,28.69096385
2473,衙前乡,116.451325,28.289285
133572,衙背魏家（合上村、群力村）,115.594572,28.601553
110935,衷家,116.001633498959,28.4557407152212
116552,袁家,115.98568,28.309791
123289,袁家村委会,115.7861,28.811299
144032,裕泰街璜源山路口,115.73927,28.63047
137903,西一路口,115.805792,29.026859
117551,西万村,116.074428,28.50958
102472,西山万寿宫,115.625038,28.552684
102470,西山中学,115.621778931807,28.5548532173228
101741,西山中队,115.673182,28.592261
101751,西山养路队,115.625515,28.544696
122806,西山学校,116.184914,28.274232
102469,西山牌楼,115.621342861026,28.5600178441423
145179,西岗山,116.018936,28.709908
144606,西岸村,115.7826105,28.46979889
117306,西昌,115.736573,28.803789
105413,西江村,115.963115,28.812329
105412,西江村委会,115.971183,28.801133
110138,西河六处,116.125783,28.716542
110139,西河村,116.128641,28.722618
122893,西河（洪城警苑）,115.917817,28.773749
139231,西洛村,115.962646,28.399339
110992,西洲路口,116.000293730794,28.4967986188235
101693,西湖区政府东,115.873579,28.661056
123174,西湖李家,116.170862,28.505188
107738,西站大街,115.800295,28.625609
123888,西站大街东口,115.811709,28.620446
142524,西站大街婺源路口,115.794011,28.627943
134673,西站大街石钟山路口,115.784896,28.632118
107146,西站大街西口,115.761498,28.642538
118922,西站大街黄岗山路口,115.804991,28.623553
144023,西站大街龙虎山大道口,115.779689,28.634704
124363,西联,116.154611,28.69794
145468,西闵村,116.078634,28.691702
108463,观洲安置点,115.856257359353,28.6332151806503
124360,观田,115.973307,28.642165
103867,观田农贸市场,115.978995,28.640112
103861,解放东路京东南大道口,115.960301,28.645822
103860,解放东路秦凤路口,115.957124,28.646044
103856,解放东路青山湖南大道口,115.947751,28.649639
119247,詹家,115.559113,28.828391
107309,计生委行政服务中心,115.570280720747,28.8459976457149
117774,证券街,115.903942,28.706293
113022,诚义路中段,115.870489,28.589846
113023,诚义路北口,115.870009,28.593375
113021,诚义路南口,115.870369,28.585422
117059,谢埠,115.998273,28.586874
101939,谢家,115.668406523025,28.6325741220817
104564,谢家村,115.937569,28.677504
137533,谢家村,115.549916,28.46488
108353,谢家村北,115.935945125969,28.6790487769568
108293,谢家村南,115.93574620835,28.6754417291349
138648,谭家,115.775708,28.837108
133657,谭岗,115.902492,28.332727
123378,谷升,116.238186,28.444618
119675,谷溪,115.700018,28.491557
124572,豆芽巷,115.905536,28.71143
116024,象山,115.98034705,28.95188525
121131,象山北路北口,115.885064,28.690178
115630,象山总站,115.984499,28.956864
116032,象山桥,115.995423,28.959958
116021,象山森林公园,115.964876,28.951245
122222,象湖公交总站,115.877207,28.600467
110881,象湖公园东门,115.8957,28.628882
110880,象湖隧道东口,115.898966,28.624018
121378,象潭村,115.785605,28.442858
134117,豫章小学紫金校区,115.90738,28.708515
100795,豫章师范学院,115.773194,28.665016
105233,豫章桥北,115.944692,28.738113
103538,财大,115.84633,28.746848
125169,财大西门,115.847842,28.751779
114096,财大麦园校区,115.809862,28.727154
114089,财大麦园校区北门,115.814507,28.737482
120886,贤士三路口,116.232501,28.397284
105563,贤士二路北口,115.90886,28.691575
107376,贤士二路口,115.90894,28.688346
110054,贺龙指挥部,115.88005,28.683173
105231,贾村,115.948817,28.743761
145303,赣东中路,115.965908,28.442216
117793,赣江中大道南口,115.851907,28.670358
123905,赣江北大道闵江路口,115.879911,28.711913
145256,赣江南大道吉安街口,115.799512,28.56146
117209,赣江南大道宜春大街口,115.801979,28.572093
123894,赣江南大道岭北一路口,115.834319,28.647284
117794,赣江南大道岭口路口,115.847715,28.662821
145255,赣江南大道新余街口,115.801029,28.567943
